station_id,external_id,name,short_name,lat,lon,rental_methods,capacity,electric_bike_surcharge_waiver,is_charging,eightd_has_key_dispenser,has_kiosk,last_updated
1,0b0fda98-08f3-11e7-a1cb-3863bb33a4e4,Drummond / de Maisonneuve,6001,45.4996545106653,-73.576335310936,"[""CREDITCARD"", ""KEY""]",27,0,0,0,1,1774663785
3,0b0fe114-08f3-11e7-a1cb-3863bb33a4e4,Clark / Ontario,6003,45.510493862521,-73.5669206771581,"[""CREDITCARD"", ""KEY""]",19,0,0,0,1,1774663785
8,0b0fe8e4-08f3-11e7-a1cb-3863bb33a4e4,Ste-Catherine / Sanguinet,6008,45.5129361778741,-73.5612452030182,"[""CREDITCARD"", ""KEY""]",43,0,0,0,1,1774663785
12,0b0ff5fc-08f3-11e7-a1cb-3863bb33a4e4,Metcalfe / de Maisonneuve (sud),6012,45.5013750273301,-73.5734578129086,"[""CREDITCARD"", ""KEY""]",23,0,0,0,1,1774663785
14,0b0ff906-08f3-11e7-a1cb-3863bb33a4e4,St-Denis / Ste-Catherine,6014,45.5137229122146,-73.5603104531765,"[""CREDITCARD"", ""KEY""]",43,0,0,0,1,1774663785
15,0b0ffa68-08f3-11e7-a1cb-3863bb33a4e4,Métro Berri-UQAM (St-Denis / de Maisonneuve),6015,45.5142519976369,-73.5615021797685,"[""CREDITCARD"", ""KEY""]",15,0,0,0,1,1774663785
17,0b0ffd3a-08f3-11e7-a1cb-3863bb33a4e4,Marché St-Jacques (Atateken),6017,45.5206659924189,-73.5639146839003,"[""CREDITCARD"", ""KEY""]",27,0,0,0,1,1774663785
19,0b100002-08f3-11e7-a1cb-3863bb33a4e4,Métro Sherbrooke (de Rigaud / Berri),6019,45.5180931825493,-73.5680264178245,"[""CREDITCARD"", ""KEY""]",27,0,0,0,1,1774663785
20,0b100167-08f3-11e7-a1cb-3863bb33a4e4,de l'Hôtel-de-Ville / Ontario,6020,45.5137452022244,-73.5666632652283,"[""CREDITCARD"", ""KEY""]",27,0,0,0,1,1774663785
21,0b1002d5-08f3-11e7-a1cb-3863bb33a4e4,St-André / de Maisonneuve,6902,45.5170859607847,-73.5597404837608,"[""CREDITCARD"", ""KEY""]",19,0,0,0,1,1774663785
22,0b100442-08f3-11e7-a1cb-3863bb33a4e4,de la Commune / des Soeurs-Grises,6023,45.4979286472605,-73.5527318716049,"[""CREDITCARD"", ""KEY""]",67,0,0,0,1,1774663785
24,0b1006f9-08f3-11e7-a1cb-3863bb33a4e4,Notre-Dame / St-Gabriel,6025,45.5071729198951,-73.5550874415367,"[""CREDITCARD"", ""KEY""]",11,0,0,0,1,1774663785
25,0b100854-08f3-11e7-a1cb-3863bb33a4e4,de la Commune / Place Jacques-Cartier,6026,45.5076100945105,-73.5518360137939,"[""CREDITCARD"", ""KEY""]",81,0,0,0,1,1774663785
26,0b1009b3-08f3-11e7-a1cb-3863bb33a4e4,de Maisonneuve / Mansfield (sud),6027,45.5018272030221,-73.5736420525427,"[""CREDITCARD"", ""KEY""]",27,0,0,0,1,1774663785
31,0b1010e4-08f3-11e7-a1cb-3863bb33a4e4,Métro Place-d'Armes (St-Urbain / Viger),6032,45.5063234039133,-73.5596989095211,"[""CREDITCARD"", ""KEY""]",19,0,0,0,1,1774663785
32,0b10125a-08f3-11e7-a1cb-3863bb33a4e4,St-André /  Cherrier,6033,45.5205016930878,-73.567701280117,"[""CREDITCARD"", ""KEY""]",27,0,0,0,1,1774663785
34,0b101537-08f3-11e7-a1cb-3863bb33a4e4,Viger / Chenneville,6035,45.5053819637549,-73.5609366688459,"[""CREDITCARD"", ""KEY""]",37,0,0,0,1,1774663785
35,0b101691-08f3-11e7-a1cb-3863bb33a4e4,de la Commune / St-Sulpice,6036,45.504242455634,-73.553469479084,"[""CREDITCARD"", ""KEY""]",47,0,0,0,1,1774663785
37,0b101966-08f3-11e7-a1cb-3863bb33a4e4,du Mont-Royal / St-André,6038,45.5265325758126,-73.5805279141005,"[""CREDITCARD"", ""KEY""]",11,0,0,0,1,1774663785
39,0b101c22-08f3-11e7-a1cb-3863bb33a4e4,Lambert-Closse / de Maisonneuve,6040,45.4909250922063,-73.5849962224529,"[""CREDITCARD"", ""KEY""]",31,0,0,0,1,1774663785
40,0b101d77-08f3-11e7-a1cb-3863bb33a4e4,Métro Square-Victoria-OACI (St-Jacques),6041,45.5011584879247,-73.5608308017254,"[""CREDITCARD"", ""KEY""]",21,0,0,0,1,1774663785
41,0b101ed0-08f3-11e7-a1cb-3863bb33a4e4,REM Gare Centrale (de la Gauchetière / Mansfield),6042,45.4998253115588,-73.5660799094876,"[""CREDITCARD"", ""KEY""]",27,0,0,0,1,1774663785
43,0b1021af-08f3-11e7-a1cb-3863bb33a4e4,Laval / Rachel,6044,45.5202244955838,-73.5795271396637,"[""CREDITCARD"", ""KEY""]",23,0,0,0,1,1774663785
45,0b10246c-08f3-11e7-a1cb-3863bb33a4e4,Métro Bonaventure (de la Gauchetière / Mansfield),6046,45.4988474902583,-73.5668584332598,"[""CREDITCARD"", ""KEY""]",31,0,0,0,1,1774663785
47,0b10272a-08f3-11e7-a1cb-3863bb33a4e4,Garnier / Beaubien,6048,45.5415879191787,-73.5986082143245,"[""CREDITCARD"", ""KEY""]",15,0,0,0,1,1774663785
49,0b102c87-08f3-11e7-a1cb-3863bb33a4e4,Robert-Bourassa / St-Maurice,6050,45.4984839296184,-73.5608453936038,"[""CREDITCARD"", ""KEY""]",23,0,0,0,1,1774663785
51,0b102e96-08f3-11e7-a1cb-3863bb33a4e4,de la Commune / King,6052,45.4975269572185,-73.5526764718906,"[""CREDITCARD"", ""KEY""]",79,0,0,0,1,1774663785
52,0b102fb4-08f3-11e7-a1cb-3863bb33a4e4,Place des Festival (du Président-Kennedy / Bleury),6053,45.5076014919639,-73.5693501975766,"[""CREDITCARD"", ""KEY""]",27,0,0,0,1,1774663785
55,0b10559b-08f3-11e7-a1cb-3863bb33a4e4,Place du Canada (Peel / des Canadiens-de-Montréal),6057,45.4977955451333,-73.5682511329651,"[""CREDITCARD"", ""KEY""]",23,0,0,0,1,1774663785
56,0b1056fb-08f3-11e7-a1cb-3863bb33a4e4,Drummond / des-Canadiens-de-Montréal,6058,45.4967606775214,-73.5702763560084,"[""CREDITCARD"", ""KEY""]",27,0,0,0,1,1774663785
59,0b105a5b-08f3-11e7-a1cb-3863bb33a4e4,Cathcart / McGill College,6061,45.5011876814898,-73.570454878145,"[""CREDITCARD"", ""KEY""]",27,0,0,0,1,1774663785
60,0b105b66-08f3-11e7-a1cb-3863bb33a4e4,Metcalfe / Ste-Catherine,6062,45.5007806174171,-73.5723146796227,"[""CREDITCARD"", ""KEY""]",19,0,0,0,1,1774663785
61,0b105c6d-08f3-11e7-a1cb-3863bb33a4e4,Stanley / René-Lévesque,6063,45.4979342874231,-73.5708126425743,"[""CREDITCARD"", ""KEY""]",39,0,0,0,1,1774663785
62,0b105d73-08f3-11e7-a1cb-3863bb33a4e4,Métro Peel (de Maisonneuve / Stanley),6064,45.50038,-73.57507,"[""CREDITCARD"", ""KEY""]",49,0,0,0,1,1774663785
63,0b105e8d-08f3-11e7-a1cb-3863bb33a4e4,de la Montagne / Sherbrooke,6065,45.4997184305162,-73.5789075493813,"[""CREDITCARD"", ""KEY""]",19,0,0,0,1,1774663785
68,0b1063c4-08f3-11e7-a1cb-3863bb33a4e4,de Maisonneuve / Aylmer (ouest),6073,45.5051734404233,-73.5706517100334,"[""CREDITCARD"", ""KEY""]",37,0,0,0,1,1774663785
69,0b1064d3-08f3-11e7-a1cb-3863bb33a4e4,Ste-Catherine / St-Clément,6076,45.5567173055894,-73.5302495956421,"[""CREDITCARD"", ""KEY""]",15,0,0,0,1,1774663785
71,0b10680e-08f3-11e7-a1cb-3863bb33a4e4,St-Alexandre / Ste-Catherine,6078,45.5052735403446,-73.5674786567688,"[""CREDITCARD"", ""KEY""]",27,0,0,0,1,1774663785
72,0b106932-08f3-11e7-a1cb-3863bb33a4e4,Métro Vendôme (de Maisonneuve / Grey),6080,45.4746177406123,-73.6034870893309,"[""CREDITCARD"", ""KEY""]",15,0,0,0,1,1774663785
73,0b106b02-08f3-11e7-a1cb-3863bb33a4e4,McGill College / de Maisonneuve,6081,45.5027583357082,-73.5725474965602,"[""CREDITCARD"", ""KEY""]",23,0,0,0,1,1774663785
75,0b106d46-08f3-11e7-a1cb-3863bb33a4e4,Aylmer / Ste-Catherine,6083,45.5043763453308,-73.5690190688547,"[""CREDITCARD"", ""KEY""]",35,0,0,0,1,1774663785
76,0b106e5d-08f3-11e7-a1cb-3863bb33a4e4,Duke / Nazareth,6084,45.4957223603083,-73.5546134412289,"[""CREDITCARD"", ""KEY""]",19,0,0,0,1,1774663785
77,0b106f9a-08f3-11e7-a1cb-3863bb33a4e4,Peel / Notre-Dame,6085,45.495446920887,-73.5632944107056,"[""CREDITCARD"", ""KEY""]",43,0,0,0,1,1774663785
78,0b1070e3-08f3-11e7-a1cb-3863bb33a4e4,Henri-Julien / du Carmel,6089,45.5279509378701,-73.5950232669711,"[""CREDITCARD"", ""KEY""]",23,0,0,0,1,1774663785
79,0b107204-08f3-11e7-a1cb-3863bb33a4e4,Métro Lucien-L'Allier (Lucien l'Allier / Argyle),6090,45.4948715959749,-73.57112377882,"[""CREDITCARD"", ""KEY""]",11,0,0,0,1,1774663785
80,0b107323-08f3-11e7-a1cb-3863bb33a4e4,du Havre / Hochelaga,6091,45.5358838959457,-73.5579090714782,"[""CREDITCARD"", ""KEY""]",19,0,0,0,1,1774663785
81,0b107432-08f3-11e7-a1cb-3863bb33a4e4,Crescent / René-Lévesque,6092,45.4960318755249,-73.5734586417675,"[""CREDITCARD"", ""KEY""]",31,0,0,0,1,1774663785
82,0b10753d-08f3-11e7-a1cb-3863bb33a4e4,Métro Beaubien (de St-Vallier / Beaubien),6912,45.5347844427484,-73.6046326160431,"[""CREDITCARD"", ""KEY""]",19,0,0,0,1,1774663785
83,0b10765d-08f3-11e7-a1cb-3863bb33a4e4,Métro Atwater (Atwater / Ste-Catherine ),6194,45.4895145510074,-73.5845257787651,"[""CREDITCARD"", ""KEY""]",31,0,0,0,1,1774663785
87,0b1081d2-08f3-11e7-a1cb-3863bb33a4e4,Ste-Catherine / Bishop,6098,45.4965806321865,-73.5762146115303,"[""CREDITCARD"", ""KEY""]",3,0,0,0,1,1774663785
88,0b10834a-08f3-11e7-a1cb-3863bb33a4e4,Ste-Catherine / St-Laurent,6099,45.5100123395076,-73.5637637972832,"[""CREDITCARD"", ""KEY""]",31,0,0,0,1,1774663785
92,0b1087c4-08f3-11e7-a1cb-3863bb33a4e4,de Rouen / Lespérance,6103,45.5388594629623,-73.5528177022934,"[""CREDITCARD"", ""KEY""]",19,0,0,0,1,1774663785
93,0b1088f0-08f3-11e7-a1cb-3863bb33a4e4,St-Timothée / René-Lévesque,6104,45.5161425681786,-73.5555334022501,"[""CREDITCARD"", ""KEY""]",23,0,0,0,1,1774663785
94,0b108a09-08f3-11e7-a1cb-3863bb33a4e4,Plessis / René-Lévesque,6105,45.5193750411687,-73.5519097745419,"[""CREDITCARD"", ""KEY""]",19,0,0,0,1,1774663785
95,0b108b24-08f3-11e7-a1cb-3863bb33a4e4,René-Lévesque / Papineau,6106,45.5209705766044,-73.5499919950962,"[""CREDITCARD"", ""KEY""]",31,0,0,0,1,1774663785
96,0b1091b6-08f3-11e7-a1cb-3863bb33a4e4,St-Mathieu / Tupper,6107,45.4932913162762,-73.5782112484776,"[""CREDITCARD"", ""KEY""]",31,0,0,0,1,1774663785
97,0b1093c6-08f3-11e7-a1cb-3863bb33a4e4,de Maisonneuve / Fullum,6108,45.5279714165933,-73.5494837164879,"[""CREDITCARD"", ""KEY""]",17,0,0,0,1,1774663785
99,0b10961a-08f3-11e7-a1cb-3863bb33a4e4,Frontenac / Ste-Catherine,6110,45.5300627614404,-73.5455918312073,"[""CREDITCARD"", ""KEY""]",19,0,0,0,1,1774663785
100,0b10972e-08f3-11e7-a1cb-3863bb33a4e4,Parthenais / Ste-Catherine,6111,45.5261008263082,-73.5488421332866,"[""CREDITCARD"", ""KEY""]",27,0,0,0,1,1774663785
101,0b10983d-08f3-11e7-a1cb-3863bb33a4e4,Montcalm / de Maisonneuve,6112,45.5191319671162,-73.5578896521474,"[""CREDITCARD"", ""KEY""]",11,0,0,0,1,1774663785
103,0b109fc4-08f3-11e7-a1cb-3863bb33a4e4,Métro Papineau (Dorion / De Maisonneuve),6114,45.5238445756922,-73.5523660183117,"[""CREDITCARD"", ""KEY""]",32,0,0,0,1,1774663785
106,0b10c45c-08f3-11e7-a1cb-3863bb33a4e4,de Maisonneuve / Aylmer (est),6117,45.5053859175677,-73.5704317688942,"[""CREDITCARD"", ""KEY""]",21,0,0,0,1,1774663785
107,0b10c672-08f3-11e7-a1cb-3863bb33a4e4,Square-Victoria (Viger / du Square-Victoria),6118,45.502085039351,-73.5629413836068,"[""CREDITCARD"", ""KEY""]",37,0,0,0,1,1774663785
108,0b10c7b5-08f3-11e7-a1cb-3863bb33a4e4,Dorion / Ontario,6119,45.5269912774535,-73.5582116246223,"[""CREDITCARD"", ""KEY""]",35,0,0,0,1,1774663785
109,0b10ce21-08f3-11e7-a1cb-3863bb33a4e4,Métro Frontenac (Ontario / du Havre),6120,45.5337059877989,-73.5521793365478,"[""CREDITCARD"", ""KEY""]",23,0,0,0,1,1774663785
110,0b10cf42-08f3-11e7-a1cb-3863bb33a4e4,Gascon / de Rouen,6121,45.5353519228624,-73.5553961996629,"[""CREDITCARD"", ""KEY""]",23,0,0,0,1,1774663785
111,0b10d04a-08f3-11e7-a1cb-3863bb33a4e4,de Maisonneuve / de Bleury,6122,45.5071006850957,-73.5690772533417,"[""CREDITCARD"", ""KEY""]",36,0,0,0,1,1774663785
112,0b10d150-08f3-11e7-a1cb-3863bb33a4e4,La Fontaine / Alexandre-DeSève,6123,45.5233036603343,-73.5579997301102,"[""CREDITCARD"", ""KEY""]",19,0,0,0,1,1774663785
113,0b10d266-08f3-11e7-a1cb-3863bb33a4e4,Ontario / Poupart,6124,45.5318165280849,-73.5536502600371,"[""CREDITCARD"", ""KEY""]",19,0,0,0,1,1774663785
115,0b10d842-08f3-11e7-a1cb-3863bb33a4e4,Métro Villa-Maria (de Monkland / Décarie),6126,45.4790046017838,-73.61956179142,"[""CREDITCARD"", ""KEY""]",26,0,0,0,1,1774663785
118,0b10dc80-08f3-11e7-a1cb-3863bb33a4e4,Parc Benny (Benny / de Monkland),6130,45.4669131054263,-73.6315867306621,"[""CREDITCARD"", ""KEY""]",23,0,0,0,1,1774663785
119,0b10dd95-08f3-11e7-a1cb-3863bb33a4e4,Fullum / Sherbrooke,6131,45.5337856631235,-73.5622805356979,"[""CREDITCARD"", ""KEY""]",43,0,0,0,1,1774663785
120,0b10e3e7-08f3-11e7-a1cb-3863bb33a4e4,Messier / Rachel,6133,45.534518136337,-73.5653246445145,"[""CREDITCARD"", ""KEY""]",27,0,0,0,1,1774663785
121,0b10e507-08f3-11e7-a1cb-3863bb33a4e4,de Bordeaux / Sherbrooke,6129,45.5298179975859,-73.56293704368,"[""CREDITCARD"", ""KEY""]",19,0,0,0,1,1774663785
122,0b10e60a-08f3-11e7-a1cb-3863bb33a4e4,Jeanne-Mance / Sherbrooke,6202,45.5093469391878,-73.5712230205536,"[""CREDITCARD"", ""KEY""]",21,0,0,0,1,1774663785
124,0b1102f9-08f3-11e7-a1cb-3863bb33a4e4,Hutchison / Prince-Arthur,6079,45.5097585860763,-73.5761073231697,"[""CREDITCARD"", ""KEY""]",19,0,0,0,1,1774663785
126,0b1108eb-08f3-11e7-a1cb-3863bb33a4e4,Atwater / Sherbrooke,6093,45.4912258547597,-73.5876300930977,"[""CREDITCARD"", ""KEY""]",23,0,0,0,1,1774663785
131,0b111c93-08f3-11e7-a1cb-3863bb33a4e4,Métro Fabre (Fabre / Jean-Talon),6923,45.5466348116571,-73.6077654361725,"[""CREDITCARD"", ""KEY""]",11,0,0,0,1,1774663785
133,0b111f7c-08f3-11e7-a1cb-3863bb33a4e4,Drummond / Sherbrooke,6072,45.5005357522142,-73.578113079202,"[""CREDITCARD"", ""KEY""]",23,0,0,0,1,1774663785
134,0b1124b9-08f3-11e7-a1cb-3863bb33a4e4,Drolet / Marie-Anne,6075,45.5224025734141,-73.5811766982079,"[""CREDITCARD"", ""KEY""]",23,0,0,0,1,1774663785
135,0b112724-08f3-11e7-a1cb-3863bb33a4e4,Bercy / Rachel,6134,45.5384034097925,-73.5619640350342,"[""CREDITCARD"", ""KEY""]",19,0,0,0,1,1774663785
136,0b112dc7-08f3-11e7-a1cb-3863bb33a4e4,Parthenais / de Rouen,6132,45.5309905902753,-73.5593470945241,"[""CREDITCARD"", ""KEY""]",23,0,0,0,1,1774663785
137,0b112f3f-08f3-11e7-a1cb-3863bb33a4e4,Berri / Laurier,6136,45.5280149805622,-73.5881750937733,"[""CREDITCARD"", ""KEY""]",19,0,0,0,1,1774663785
138,0b11347f-08f3-11e7-a1cb-3863bb33a4e4,Calixa-Lavallée / Rachel (ouest),6137,45.5278289439449,-73.5719577784721,"[""CREDITCARD"", ""KEY""]",37,0,0,0,1,1774663785
139,0b1135f2-08f3-11e7-a1cb-3863bb33a4e4,Gauthier / de Lorimier,6138,45.5316636305575,-73.5653637349606,"[""CREDITCARD"", ""KEY""]",19,0,0,0,1,1774663785
141,0b1142a8-08f3-11e7-a1cb-3863bb33a4e4,Émile-Duployé / Rachel,6140,45.5297070760969,-73.5699812072198,"[""CREDITCARD"", ""KEY""]",25,0,0,0,1,1774663785
142,0b1147d6-08f3-11e7-a1cb-3863bb33a4e4,des Érables / Rachel,6141,45.5332682945395,-73.5666016330288,"[""CREDITCARD"", ""KEY""]",19,0,0,0,1,1774663785
143,0b114d1c-08f3-11e7-a1cb-3863bb33a4e4,de Lanaudière / du Mont-Royal,6142,45.5300880233173,-73.5768820847443,"[""CREDITCARD"", ""KEY""]",31,0,0,0,1,1774663785
144,0b115254-08f3-11e7-a1cb-3863bb33a4e4,Henri-Julien / Duluth,6143,45.519708622695,-73.5767456889153,"[""CREDITCARD"", ""KEY""]",23,0,0,0,1,1774663785
145,0b1159ca-08f3-11e7-a1cb-3863bb33a4e4,du Parc-La Fontaine / Duluth,6145,45.5245176148878,-73.5719767212868,"[""CREDITCARD"", ""KEY""]",31,0,0,0,1,1774663785
146,0b115f14-08f3-11e7-a1cb-3863bb33a4e4,du Parc-La Fontaine / Roy,6146,45.5231827906644,-73.5689087864193,"[""CREDITCARD"", ""KEY""]",23,0,0,0,1,1774663785
147,0b116d41-08f3-11e7-a1cb-3863bb33a4e4,Calixa-Lavallée / Sherbrooke,6147,45.52479,-73.56545,"[""CREDITCARD"", ""KEY""]",19,0,0,0,1,1774663785
148,0b116ed6-08f3-11e7-a1cb-3863bb33a4e4,Émile-Duployé / Sherbrooke,6148,45.5271953631905,-73.5645255446434,"[""CREDITCARD"", ""KEY""]",27,0,0,0,1,1774663785
149,0b116ff4-08f3-11e7-a1cb-3863bb33a4e4,Chapleau / du Mont-Royal,6149,45.53867,-73.56936,"[""CREDITCARD"", ""KEY""]",19,0,0,0,1,1774663785
150,0b117115-08f3-11e7-a1cb-3863bb33a4e4,Messier / du Mont-Royal,6150,45.53711414,-73.5710031,"[""CREDITCARD"", ""KEY""]",35,0,0,0,1,1774663785
151,0b11945c-08f3-11e7-a1cb-3863bb33a4e4,Parthenais / du Mont-Royal,6151,45.5364039651641,-73.5714134573936,"[""CREDITCARD"", ""KEY""]",23,0,0,0,1,1774663785
152,0b1195c7-08f3-11e7-a1cb-3863bb33a4e4,Marie-Anne / de Bordeaux,6152,45.53356432969,-73.5705964790213,"[""CREDITCARD"", ""KEY""]",27,0,0,0,1,1774663785
153,0b119728-08f3-11e7-a1cb-3863bb33a4e4,Marie-Anne / Papineau,6153,45.5317669714818,-73.5724139213562,"[""CREDITCARD"", ""KEY""]",23,0,0,0,1,1774663785
154,0b1198eb-08f3-11e7-a1cb-3863bb33a4e4,Marquette / du Mont-Royal,6154,45.5322179114747,-73.575431406498,"[""CREDITCARD"", ""KEY""]",23,0,0,0,1,1774663785
155,0b119a5f-08f3-11e7-a1cb-3863bb33a4e4,Parc St-Roch (Ball / Durocher),6155,45.5319886840968,-73.6314412951469,"[""CREDITCARD"", ""KEY""]",15,0,0,0,1,1774663785
156,0b119c87-08f3-11e7-a1cb-3863bb33a4e4,Marie-Anne / de la Roche,6156,45.5275933458871,-73.576250375736,"[""CREDITCARD"", ""KEY""]",19,0,0,0,1,1774663785
157,0b119e07-08f3-11e7-a1cb-3863bb33a4e4,Chambord / du Mont-Royal,6157,45.5297115020634,-73.5772182985966,"[""CREDITCARD"", ""KEY""]",11,0,0,0,1,1774663785
158,0b119f9b-08f3-11e7-a1cb-3863bb33a4e4,Gilford / de Brébeuf,6158,45.5308702477731,-73.581557571888,"[""CREDITCARD"", ""KEY""]",19,0,0,0,1,1774663785
159,0b11a121-08f3-11e7-a1cb-3863bb33a4e4,20e avenue / de Bellechasse,6159,45.5599295114252,-73.5767751932144,"[""CREDITCARD"", ""KEY""]",19,0,0,0,1,1774663785
160,0b11a316-08f3-11e7-a1cb-3863bb33a4e4,Garnier / Gilford,6160,45.5325067440398,-73.5801609651026,"[""CREDITCARD"", ""KEY""]",19,0,0,0,1,1774663785
161,0b11a4af-08f3-11e7-a1cb-3863bb33a4e4,Marquette / du Mont-Royal (sud),6161,45.5320772279795,-73.5751430690288,"[""CREDITCARD"", ""KEY""]",23,0,0,0,1,1774663785
163,0b11a7b6-08f3-11e7-a1cb-3863bb33a4e4,Marquette / Laurier,6163,45.53543,-73.5822,"[""CREDITCARD"", ""KEY""]",31,0,0,0,1,1774663785
164,0b11a928-08f3-11e7-a1cb-3863bb33a4e4,de Lanaudière / Laurier,6164,45.5332563449557,-73.5835737642083,"[""CREDITCARD"", ""KEY""]",23,0,0,0,1,1774663785
165,0b11aa95-08f3-11e7-a1cb-3863bb33a4e4,Laurier / de Brébeuf,6165,45.5325884011355,-73.5846640821728,"[""CREDITCARD"", ""KEY""]",31,0,0,0,1,1774663785
166,0b11ac01-08f3-11e7-a1cb-3863bb33a4e4,St-Grégoire / Christophe-Colomb,6166,45.5325561140967,-73.5899394750595,"[""CREDITCARD"", ""KEY""]",39,0,0,0,1,1774663785
167,0b11ad6b-08f3-11e7-a1cb-3863bb33a4e4,Garnier / St-Grégoire,6167,45.5358215436799,-73.5871016979218,"[""CREDITCARD"", ""KEY""]",23,0,0,0,1,1774663785
169,0b11b06e-08f3-11e7-a1cb-3863bb33a4e4,du Mont-Royal / Christophe-Colomb,6169,45.5279537615798,-73.579361938082,"[""CREDITCARD"", ""KEY""]",11,0,0,0,1,1774663785
170,0b11b1dc-08f3-11e7-a1cb-3863bb33a4e4,St-André / Laurier,6170,45.5295160864688,-73.5875448033039,"[""CREDITCARD"", ""KEY""]",19,0,0,0,1,1774663785
173,0b11b660-08f3-11e7-a1cb-3863bb33a4e4,Berri / Cherrier,6173,45.5192661569113,-73.5692971944809,"[""CREDITCARD"", ""KEY""]",39,0,0,0,1,1774663785
174,0b11b7e0-08f3-11e7-a1cb-3863bb33a4e4,Roy / St-Denis,6174,45.5191010779923,-73.572682966369,"[""CREDITCARD"", ""KEY""]",26,0,0,0,1,1774663785
176,0b11bac8-08f3-11e7-a1cb-3863bb33a4e4,du Parc-La Fontaine / Rachel,6176,45.5255116850989,-73.5742445290089,"[""CREDITCARD"", ""KEY""]",15,0,0,0,1,1774663785
179,0b11bf22-08f3-11e7-a1cb-3863bb33a4e4,Duluth / St-Denis,6179,45.5206276060793,-73.5759490728378,"[""CREDITCARD"", ""KEY""]",15,0,0,0,1,1774663785
181,0b11c320-08f3-11e7-a1cb-3863bb33a4e4,Clark / Rachel,6181,45.5175374492075,-73.5824152455461,"[""CREDITCARD"", ""KEY""]",23,0,0,0,1,1774663785
182,0b11c48f-08f3-11e7-a1cb-3863bb33a4e4,de l'Hôtel-de-Ville / du Mont-Royal,6182,45.5221780041457,-73.5846085846424,"[""CREDITCARD"", ""KEY""]",19,0,0,0,1,1774663785
183,0b11c5fc-08f3-11e7-a1cb-3863bb33a4e4,Laval / du Mont-Royal,6183,45.5223645775784,-73.5841459035873,"[""CREDITCARD"", ""KEY""]",23,0,0,0,1,1774663785
184,0b11c779-08f3-11e7-a1cb-3863bb33a4e4,Resther / du Mont-Royal,6184,45.5256037625471,-73.5817158222198,"[""CREDITCARD"", ""KEY""]",23,0,0,0,1,1774663785
186,0b11ca72-08f3-11e7-a1cb-3863bb33a4e4,St-Hubert / Laurier,6186,45.5289986543804,-73.5881147440705,"[""CREDITCARD"", ""KEY""]",19,0,0,0,1,1774663785
187,0b11cbe1-08f3-11e7-a1cb-3863bb33a4e4,McGill / Place d'Youville,6187,45.5000145811025,-73.5562525814112,"[""CREDITCARD"", ""KEY""]",29,0,0,0,1,1774663785
188,0b11cd56-08f3-11e7-a1cb-3863bb33a4e4,de Mentana / Marie-Anne,6188,45.5260265652214,-73.5778588056564,"[""CREDITCARD"", ""KEY""]",27,0,0,0,1,1774663785
190,0b11d04c-08f3-11e7-a1cb-3863bb33a4e4,Berri / Gilford,6190,45.5267763274829,-73.586061000824,"[""CREDITCARD"", ""KEY""]",23,0,0,0,1,1774663785
193,0b11d48b-08f3-11e7-a1cb-3863bb33a4e4,de l'Esplanade / Fairmount,6193,45.5215465744536,-73.5969775915146,"[""CREDITCARD"", ""KEY""]",15,0,0,0,1,1774663785
194,0b11d60b-08f3-11e7-a1cb-3863bb33a4e4,Maguire / de Gaspé,6094,45.526110205402,-73.5943043233056,"[""CREDITCARD"", ""KEY""]",15,0,0,0,1,1774663785
195,0b11d77c-08f3-11e7-a1cb-3863bb33a4e4,de Bullion / Laurier,6195,45.5244860148859,-73.5913065727982,"[""CREDITCARD"", ""KEY""]",19,0,0,0,1,1774663785
196,0b11d8f6-08f3-11e7-a1cb-3863bb33a4e4,Villeneuve / St-Dominique,6196,45.5222726645267,-73.5887013189858,"[""CREDITCARD"", ""KEY""]",27,0,0,0,1,1774663785
198,0b11dbd1-08f3-11e7-a1cb-3863bb33a4e4,Hélène-Baillargeon / St-Denis,6198,45.5297358177783,-73.5951295495033,"[""CREDITCARD"", ""KEY""]",23,0,0,0,1,1774663785
200,0b11dec0-08f3-11e7-a1cb-3863bb33a4e4,Maguire / St-Laurent,6200,45.5246284855926,-73.5958108305931,"[""CREDITCARD"", ""KEY""]",26,0,0,0,1,1774663785
201,0b11dfdd-08f3-11e7-a1cb-3863bb33a4e4,de l'Hôtel-de-Ville / Villeneuve,6201,45.5234808276069,-73.5873275623817,"[""CREDITCARD"", ""KEY""]",23,0,0,0,1,1774663785
202,0b12034a-08f3-11e7-a1cb-3863bb33a4e4,Aylmer / Sherbrooke,6203,45.5063227077177,-73.5728228590233,"[""CREDITCARD"", ""KEY""]",27,0,0,0,1,1774663785
204,0b1205e1-08f3-11e7-a1cb-3863bb33a4e4,Prince-Arthur / du Parc,6206,45.5105010465965,-73.5755789279938,"[""CREDITCARD"", ""KEY""]",35,0,0,0,1,1774663785
205,0b1206fe-08f3-11e7-a1cb-3863bb33a4e4,Ste-Famille / des Pins,6207,45.5128561793357,-73.5769280791283,"[""CREDITCARD"", ""KEY""]",27,0,0,0,1,1774663785
206,0b120816-08f3-11e7-a1cb-3863bb33a4e4,Boyer / Jean-Talon,6208,45.5413749688661,-73.6121320724487,"[""CREDITCARD"", ""KEY""]",15,0,0,0,1,1774663785
207,0b12092a-08f3-11e7-a1cb-3863bb33a4e4,Milton / St-Laurent,6209,45.5129163250903,-73.5705564916134,"[""CREDITCARD"", ""KEY""]",21,0,0,0,1,1774663785
208,0b120a4a-08f3-11e7-a1cb-3863bb33a4e4,Métro Sauvé (Berri / Sauvé),6210,45.5506920684198,-73.6563670635223,"[""CREDITCARD"", ""KEY""]",21,0,0,0,1,1774663785
209,0b120b73-08f3-11e7-a1cb-3863bb33a4e4,des Pins / St-Laurent,6211,45.515228128815,-73.5750961303711,"[""CREDITCARD"", ""KEY""]",23,0,0,0,1,1774663785
210,0b120c8a-08f3-11e7-a1cb-3863bb33a4e4,Duluth / de l'Esplanade,6212,45.5151322754258,-73.5810559988022,"[""CREDITCARD"", ""KEY""]",27,0,0,0,1,1774663785
211,0b120d99-08f3-11e7-a1cb-3863bb33a4e4,Coloniale / Marie-Anne,6213,45.5199736855172,-73.5830765966966,"[""CREDITCARD"", ""KEY""]",23,0,0,0,1,1774663785
212,0b120eaa-08f3-11e7-a1cb-3863bb33a4e4,du Square Saint-Louis / Laval,6214,45.5160865242307,-73.570156325477,"[""CREDITCARD"", ""KEY""]",35,0,0,0,1,1774663785
213,0b120fbf-08f3-11e7-a1cb-3863bb33a4e4,Mackay / Sherbrooke,6215,45.4972913773927,-73.5799364471495,"[""CREDITCARD"", ""KEY""]",23,0,0,0,1,1774663785
214,0b1210e1-08f3-11e7-a1cb-3863bb33a4e4,Parc Jeanne-Mance (monument sir George-Étienne-Cartier),6216,45.5148749035694,-73.5848640650511,"[""CREDITCARD"", ""KEY""]",47,0,0,0,1,1774663785
215,0b1211fb-08f3-11e7-a1cb-3863bb33a4e4,Vallières / St-Laurent,6217,45.5189672233201,-73.5836161673069,"[""CREDITCARD"", ""KEY""]",23,0,0,0,1,1774663785
216,0b12130a-08f3-11e7-a1cb-3863bb33a4e4,Hôtel-de-Ville / Roy,6219,45.5173538879347,-73.5745629116718,"[""CREDITCARD"", ""KEY""]",19,0,0,0,1,1774663785
217,0b12141b-08f3-11e7-a1cb-3863bb33a4e4,Rachel / de Brébeuf,6220,45.526911494644,-73.5727014299664,"[""CREDITCARD"", ""KEY""]",29,0,0,0,1,1774663785
218,0b121524-08f3-11e7-a1cb-3863bb33a4e4,du Mont-Royal / Clark,6221,45.51941,-73.58685,"[""CREDITCARD"", ""KEY""]",39,0,0,0,1,1774663785
219,0b12164d-08f3-11e7-a1cb-3863bb33a4e4,Viger / St-Alexandre,6222,45.5027771812915,-73.5625783195064,"[""CREDITCARD"", ""KEY""]",27,0,0,0,1,1774663785
220,0b12176d-08f3-11e7-a1cb-3863bb33a4e4,de l'Esplanade / Rachel,6223,45.5163257880627,-73.5834876917215,"[""CREDITCARD"", ""KEY""]",43,0,0,0,1,1774663785
221,0b121880-08f3-11e7-a1cb-3863bb33a4e4,Villeneuve / du Parc,6224,45.5181976235214,-73.5923923552036,"[""CREDITCARD"", ""KEY""]",15,0,0,0,1,1774663785
222,0b121993-08f3-11e7-a1cb-3863bb33a4e4,de l'Esplanade / Villeneuve,6225,45.5194318421386,-73.5909595385965,"[""CREDITCARD"", ""KEY""]",19,0,0,0,1,1774663785
223,0b121aa3-08f3-11e7-a1cb-3863bb33a4e4,Hôpital Maisonneuve-Rosemont (Rosemont / Chatelain),6226,45.5755658969059,-73.5609831706461,"[""CREDITCARD"", ""KEY""]",35,0,0,0,1,1774663785
224,0b121bcd-08f3-11e7-a1cb-3863bb33a4e4,Jeanne-Mance / Laurier,6227,45.5202763332061,-73.5949762166638,"[""CREDITCARD"", ""KEY""]",22,0,0,0,1,1774663785
228,0b122017-08f3-11e7-a1cb-3863bb33a4e4,Clark / de l'Arcade,6234,45.527371996141,-73.6039835214615,"[""CREDITCARD"", ""KEY""]",19,0,0,0,1,1774663785
230,0b122287-08f3-11e7-a1cb-3863bb33a4e4,Fabre / Laurier,6236,45.5345830281429,-73.5826286687734,"[""CREDITCARD"", ""KEY""]",23,0,0,0,1,1774663785
232,0b1224c3-08f3-11e7-a1cb-3863bb33a4e4,Chambord / Gilford,6237,45.5314958969109,-73.5810687766207,"[""CREDITCARD"", ""KEY""]",19,0,0,0,1,1774663785
233,0b1225d9-08f3-11e7-a1cb-3863bb33a4e4,St-Dominique / Napoléon,6903,45.5166644221988,-73.5772204399109,"[""CREDITCARD"", ""KEY""]",31,0,0,0,1,1774663785
244,0b1238fe-08f3-11e7-a1cb-3863bb33a4e4,Coloniale / Rachel,6248,45.5190271537204,-73.5810914637477,"[""CREDITCARD"", ""KEY""]",23,0,0,0,1,1774663785
258,0b12a710-08f3-11e7-a1cb-3863bb33a4e4,Christophe-Colomb / Beaubien,6262,45.537839326553,-73.6011564731598,"[""CREDITCARD"", ""KEY""]",19,0,0,0,1,1774663785
264,0b12b4d7-08f3-11e7-a1cb-3863bb33a4e4,de Normanville / Beaubien,6268,45.5393931902455,-73.6006007343985,"[""CREDITCARD"", ""KEY""]",19,0,0,0,1,1774663785
265,0b12ba05-08f3-11e7-a1cb-3863bb33a4e4,Wurtele / de Rouen,6269,45.537625207503,-73.5534523151728,"[""CREDITCARD"", ""KEY""]",15,0,0,0,1,1774663785
268,0b12bd4f-08f3-11e7-a1cb-3863bb33a4e4,6e Avenue / Bélanger,6272,45.5545828152497,-73.5963191092014,"[""CREDITCARD"", ""KEY""]",19,0,0,0,1,1774663785
270,0b12dba6-08f3-11e7-a1cb-3863bb33a4e4,Christophe-Colomb / St-Joseph,6274,45.5303648655596,-73.5843926668167,"[""CREDITCARD"", ""KEY""]",27,0,0,0,1,1774663785
271,0b12ddaa-08f3-11e7-a1cb-3863bb33a4e4,Parc de Turin (de Lanaudière / Jean-Talon),6275,45.5453503341932,-73.6103296279907,"[""CREDITCARD"", ""KEY""]",23,0,0,0,1,1774663785
281,0b12fe33-08f3-11e7-a1cb-3863bb33a4e4,Marie-Anne / St-Hubert,6926,45.5246829812827,-73.5788968205452,"[""CREDITCARD"", ""KEY""]",23,0,0,0,1,1774663785
283,0b130533-08f3-11e7-a1cb-3863bb33a4e4,Ste-Catherine / du Fort,6928,45.4919423474177,-73.5813542648975,"[""CREDITCARD"", ""KEY""]",31,0,0,0,1,1774663785
286,0b1313e0-08f3-11e7-a1cb-3863bb33a4e4,Bernard / Jeanne-Mance,6233,45.5242958728226,-73.6049115657806,"[""CREDITCARD"", ""KEY""]",23,0,0,0,1,1774663785
287,0b131556-08f3-11e7-a1cb-3863bb33a4e4,Parc Henri-Julien (Legendre / Henri-Julien),6917,45.5461283383866,-73.6465036869595,"[""CREDITCARD"", ""KEY""]",19,0,0,0,1,1774663785
288,0b131aab-08f3-11e7-a1cb-3863bb33a4e4,Bibliothèque et Complexe aquatique Rosemont (8e avenue / Rosemont),6919,45.5515748586425,-73.5822522640228,"[""CREDITCARD"", ""KEY""]",19,0,0,0,1,1774663785
290,0b1327e4-08f3-11e7-a1cb-3863bb33a4e4,du Séminaire / de la Montagne,6086,45.4921078892434,-73.5624629259109,"[""CREDITCARD"", ""KEY""]",35,0,0,0,1,1774663785
291,0b132d5a-08f3-11e7-a1cb-3863bb33a4e4,de la Montagne / Notre-Dame,6087,45.4929133790646,-73.5646878182888,"[""CREDITCARD"", ""KEY""]",24,0,0,0,1,1774663785
292,0b1332b8-08f3-11e7-a1cb-3863bb33a4e4,Fullum / Gilford,6088,45.5391980072494,-73.5737818479538,"[""CREDITCARD"", ""KEY""]",23,0,0,0,1,1774663785
294,0b13441f-08f3-11e7-a1cb-3863bb33a4e4,St-Dominique / Laurier,6280,45.5236873630736,-73.5925926920208,"[""CREDITCARD"", ""KEY""]",22,0,0,0,1,1774663785
301,0b13760f-08f3-11e7-a1cb-3863bb33a4e4,Notre-Dame / St-Martin,6401,45.4883019464355,-73.5687178373337,"[""CREDITCARD"", ""KEY""]",19,0,0,0,1,1774663785
304,0b137a21-08f3-11e7-a1cb-3863bb33a4e4,St-Jacques / Vinet,6404,45.4853289939984,-73.5769227147102,"[""CREDITCARD"", ""KEY""]",0,0,0,0,1,1774663785
305,0b137b3e-08f3-11e7-a1cb-3863bb33a4e4,St-Antoine / de la Montagne,6405,45.4955240260524,-73.5683861375946,"[""CREDITCARD"", ""KEY""]",19,0,0,0,1,1774663785
306,0b137c76-08f3-11e7-a1cb-3863bb33a4e4,Marché Atwater,6406,45.4802082280002,-73.577598631382,"[""CREDITCARD"", ""KEY""]",32,0,0,0,1,1774663785
307,0b137d98-08f3-11e7-a1cb-3863bb33a4e4,Workman / Vinet,6407,45.4837888639652,-73.5750612616539,"[""CREDITCARD"", ""KEY""]",23,0,0,0,1,1774663785
309,0b138096-08f3-11e7-a1cb-3863bb33a4e4,de l'Hôtel-de-Ville / Rachel,6307,45.5198965550783,-73.5801064968109,"[""CREDITCARD"", ""KEY""]",14,0,0,0,1,1774663785
312,0b138723-08f3-11e7-a1cb-3863bb33a4e4,de Darlington / Van Horne,6310,45.5080212581285,-73.6257543788088,"[""CREDITCARD"", ""KEY""]",23,0,0,0,1,1774663785
314,0b138a2d-08f3-11e7-a1cb-3863bb33a4e4,Goyer / Côte-des-Neiges,6312,45.5032267370252,-73.6364937480721,"[""CREDITCARD"", ""KEY""]",19,0,0,0,1,1774663785
316,0b138d55-08f3-11e7-a1cb-3863bb33a4e4,de Lanaudière / Marie-Anne,6314,45.5293264309009,-73.5748064517975,"[""CREDITCARD"", ""KEY""]",15,0,0,0,1,1774663785
318,0b139069-08f3-11e7-a1cb-3863bb33a4e4,Parc Rosemary-Brown (McLynn / Plamondon),6316,45.4897629990036,-73.6481550336975,"[""CREDITCARD"", ""KEY""]",19,0,0,0,1,1774663785
320,0b139367-08f3-11e7-a1cb-3863bb33a4e4,de Bordeaux / St-Joseph,6385,45.5368325316789,-73.5777742168648,"[""CREDITCARD"", ""KEY""]",19,0,0,0,1,1774663785
322,0b139684-08f3-11e7-a1cb-3863bb33a4e4,Bourbonnière / Ontario,6387,45.5479823771343,-73.5432319350184,"[""CREDITCARD"", ""KEY""]",29,0,0,0,1,1774663785
324,0b139985-08f3-11e7-a1cb-3863bb33a4e4,des Pins / Hutchison,6389,45.5107769410202,-73.5782500728965,"[""CREDITCARD"", ""KEY""]",27,0,0,0,1,1774663785
325,0b139b11-08f3-11e7-a1cb-3863bb33a4e4,Aylwin / Ontario,6391,45.5442904853743,-73.5452324151993,"[""CREDITCARD"", ""KEY""]",27,0,0,0,1,1774663785
330,0b13a2b3-08f3-11e7-a1cb-3863bb33a4e4,Marché Maisonneuve (Ontario / Morgan),6397,45.5532073970608,-73.5396164059966,"[""CREDITCARD"", ""KEY""]",22,0,0,0,1,1774663785
342,0b13b4f3-08f3-11e7-a1cb-3863bb33a4e4,Parc Villeray (Jarry / Christophe-Colomb),6338,45.5485132076761,-73.6236548423767,"[""CREDITCARD"", ""KEY""]",15,0,0,0,1,1774663785
345,0b13df6a-08f3-11e7-a1cb-3863bb33a4e4,Regina / de Verdun,6341,45.4673439059613,-73.5707885026932,"[""CREDITCARD"", ""KEY""]",19,0,0,0,1,1774663785
346,0b13e0f4-08f3-11e7-a1cb-3863bb33a4e4,Métro Fabre (Papineau / Jean-Talon),6343,45.5477618568009,-73.6069071292877,"[""CREDITCARD"", ""KEY""]",23,0,0,0,1,1774663785
347,0b13e231-08f3-11e7-a1cb-3863bb33a4e4,Métro Mont-Royal (Place Gérald-Godin),6345,45.5244202439886,-73.5816626902852,"[""CREDITCARD"", ""KEY""]",23,0,0,0,1,1774663785
355,0b13eb2d-08f3-11e7-a1cb-3863bb33a4e4,Tupper / du Fort,6322,45.4914315359089,-73.5803887249858,"[""CREDITCARD"", ""KEY""]",23,0,0,0,1,1774663785
360,0b13f0dd-08f3-11e7-a1cb-3863bb33a4e4,de Monkland / Girouard,6356,45.477044971244,-73.6214268211916,"[""CREDITCARD"", ""KEY""]",23,0,0,0,1,1774663785
362,0b13f308-08f3-11e7-a1cb-3863bb33a4e4,1ere avenue / St-Zotique,6358,45.5518798667395,-73.5935905577571,"[""CREDITCARD"", ""KEY""]",19,0,0,0,1,1774663785
363,0b13f435-08f3-11e7-a1cb-3863bb33a4e4,Place de la Paix (St-Laurent),6359,45.5092896091311,-73.5624159872532,"[""CREDITCARD"", ""KEY""]",27,0,0,0,1,1774663785
364,0b13f555-08f3-11e7-a1cb-3863bb33a4e4,Beaubien / 8e avenue,6360,45.5533199720256,-73.5876314342022,"[""CREDITCARD"", ""KEY""]",15,0,0,0,1,1774663785
372,0b13fe3c-08f3-11e7-a1cb-3863bb33a4e4,9e avenue / Masson,6368,45.54964350223,-73.5736209154129,"[""CREDITCARD"", ""KEY""]",15,0,0,0,1,1774663785
378,0b1404ef-08f3-11e7-a1cb-3863bb33a4e4,Parc André-Lavallée (Laurier),6374,45.5533199280052,-73.5693280398846,"[""CREDITCARD"", ""KEY""]",24,0,0,0,1,1774663785
379,0b14060a-08f3-11e7-a1cb-3863bb33a4e4,St-Rémi / Ste-Émilie,6375,45.4697649741221,-73.5892340540886,"[""CREDITCARD"", ""KEY""]",27,0,0,0,1,1774663785
381,0b140857-08f3-11e7-a1cb-3863bb33a4e4,Ottawa / du Séminaire,6377,45.4912954250061,-73.5615992546082,"[""CREDITCARD"", ""KEY""]",23,0,0,0,1,1774663785
383,0b140aa8-08f3-11e7-a1cb-3863bb33a4e4,Lanouette / de l'Église,6379,45.4633739332744,-73.5768342018127,"[""CREDITCARD"", ""KEY""]",15,0,0,0,1,1774663785
385,0b141134-08f3-11e7-a1cb-3863bb33a4e4,Omer-Lavallée / du Midway,6381,45.5457759528664,-73.5621745884418,"[""CREDITCARD"", ""KEY""]",18,0,0,0,1,1774663785
388,0b141591-08f3-11e7-a1cb-3863bb33a4e4,Métro Pie-IX (Pierre-de-Coubertin / Desjardins),6396,45.5543733998197,-73.5513746738434,"[""CREDITCARD"", ""KEY""]",49,0,0,0,1,1774663785
389,0b1416bd-08f3-11e7-a1cb-3863bb33a4e4,Elmwood / Mc Dougall,6301,45.5177864201081,-73.6036401987076,"[""CREDITCARD"", ""KEY""]",15,0,0,0,1,1774663785
390,0b1417e4-08f3-11e7-a1cb-3863bb33a4e4,Parc Hilda-Ramacière (de Bullion / Prince-Arthur),6302,45.5156213198234,-73.5721296072006,"[""CREDITCARD"", ""KEY""]",27,0,0,0,1,1774663785
391,0b141901-08f3-11e7-a1cb-3863bb33a4e4,Parc Pratt (Dunlop / Van Horne),6303,45.5149189540619,-73.6196851730347,"[""CREDITCARD"", ""KEY""]",15,0,0,0,1,1774663785
393,0b141b49-08f3-11e7-a1cb-3863bb33a4e4,de la Cote-Ste-Catherine / Davaar,6305,45.5141624554819,-73.6110591888428,"[""CREDITCARD"", ""KEY""]",11,0,0,0,1,1774663785
399,0b14284e-08f3-11e7-a1cb-3863bb33a4e4,des Érables / Laurier,6409,45.5385149136077,-73.57769921422,"[""CREDITCARD"", ""KEY""]",19,0,0,0,1,1774663785
401,0b14514d-08f3-11e7-a1cb-3863bb33a4e4,de l'Hôtel-de-Ville / Sherbrooke,6021,45.5145247302944,-73.5683557391167,"[""CREDITCARD"", ""KEY""]",31,0,0,0,1,1774663785
403,0b1453ac-08f3-11e7-a1cb-3863bb33a4e4,Campus MIL (Outremont / Thérèse-Lavoie Roux),6066,45.5228751995317,-73.6179457604885,"[""CREDITCARD"", ""KEY""]",31,0,0,0,1,1774663785
404,0b1454e7-08f3-11e7-a1cb-3863bb33a4e4,Prince-Arthur / St-Urbain,6218,45.5125225767742,-73.5738068820137,"[""CREDITCARD"", ""KEY""]",23,0,0,0,1,1774663785
408,0b145fee-08f3-11e7-a1cb-3863bb33a4e4,Métro Parc (Hutchison / Ogilvy),6503,45.530351301736,-73.6243924498558,"[""CREDITCARD"", ""KEY""]",33,0,0,0,1,1774663785
413,0b1465ad-08f3-11e7-a1cb-3863bb33a4e4,Wilson / Sherbrooke,6415,45.4703791154553,-73.6166381835937,"[""CREDITCARD"", ""KEY""]",23,0,0,0,1,1774663785
421,0b14793c-08f3-11e7-a1cb-3863bb33a4e4,REM McGill (de Maisonneuve / Mansfield),6423,45.5022934941626,-73.5733064264059,"[""CREDITCARD"", ""KEY""]",23,0,0,0,1,1774663785
424,0b147c90-08f3-11e7-a1cb-3863bb33a4e4,Métro Crémazie (Crémazie / Lajeunesse),6410,45.5464075214817,-73.6384284496307,"[""CREDITCARD"", ""KEY""]",15,0,0,0,1,1774663785
425,0b147daa-08f3-11e7-a1cb-3863bb33a4e4,Milton / Hutchison,6412,45.5087215725317,-73.5743322484905,"[""CREDITCARD"", ""KEY""]",19,0,0,0,1,1774663785
426,0b1482b7-08f3-11e7-a1cb-3863bb33a4e4,Ste-Catherine / Union,6413,45.5037038778984,-73.5694152116776,"[""CREDITCARD"", ""KEY""]",37,0,0,0,1,1774663785
427,0b1483e2-08f3-11e7-a1cb-3863bb33a4e4,Parc St-Henri (Laporte / Guay),6414,45.4801160762769,-73.5856077075005,"[""CREDITCARD"", ""KEY""]",15,0,0,0,1,1774663785
428,0b1485d4-08f3-11e7-a1cb-3863bb33a4e4,Métro de l'Église (Ross / de l'Église),6425,45.4628312022419,-73.5659377276897,"[""CREDITCARD"", ""KEY""]",18,0,0,0,1,1774663785
432,0b14a0b5-08f3-11e7-a1cb-3863bb33a4e4,Clark / Prince-Arthur,6411,45.5133425123071,-73.57301607728,"[""CREDITCARD"", ""KEY""]",31,0,0,0,1,1774663785
437,0b14ae83-08f3-11e7-a1cb-3863bb33a4e4,St-Urbain / Laurier,6281,45.521710833771,-73.5937428474426,"[""CREDITCARD"", ""KEY""]",19,0,0,0,1,1774663785
438,0b14b09f-08f3-11e7-a1cb-3863bb33a4e4,de Maisonneuve / Greene,6432,45.48697062,-73.58929306,"[""CREDITCARD"", ""KEY""]",19,0,0,0,1,1774663785
452,0b14e83b-08f3-11e7-a1cb-3863bb33a4e4,Parc Ludger-Duvernay (St-André / St-Hubert),6929,45.5314746414748,-73.5924205183983,"[""CREDITCARD"", ""KEY""]",19,0,0,0,1,1774663785
455,0b15234d-08f3-11e7-a1cb-3863bb33a4e4,Stanley / Sherbrooke,6701,45.5010573232146,-73.5772263408035,"[""CREDITCARD"", ""KEY""]",39,0,0,0,1,1774663785
457,0b154e30-08f3-11e7-a1cb-3863bb33a4e4,Sherbrooke / Jeanne-d'Arc,6703,45.5539815605889,-73.554963881561,"[""CREDITCARD"", ""KEY""]",27,0,0,0,1,1774663785
459,0b1551f1-08f3-11e7-a1cb-3863bb33a4e4,3e avenue / Bannantyne,6705,45.4576641788092,-73.5758846998215,"[""CREDITCARD"", ""KEY""]",15,0,0,0,1,1774663785
461,0b155435-08f3-11e7-a1cb-3863bb33a4e4,Métro Jolicoeur (de Sève / Drake),6707,45.4560854578311,-73.5819371044636,"[""CREDITCARD"", ""KEY""]",19,0,0,0,1,1774663785
462,0b155561-08f3-11e7-a1cb-3863bb33a4e4,Métro Verdun (Willibrord / de Verdun),6708,45.4593735942534,-73.5720035433769,"[""CREDITCARD"", ""KEY""]",21,0,0,0,1,1774663785
472,0b1565a3-08f3-11e7-a1cb-3863bb33a4e4,Sherbrooke / Grand Boulevard,6718,45.46686910882,-73.6232417821884,"[""CREDITCARD"", ""KEY""]",15,0,0,0,1,1774663785
474,0b1567df-08f3-11e7-a1cb-3863bb33a4e4,Ontario / Ville-Marie,6720,45.5600195958545,-73.534934520776,"[""CREDITCARD"", ""KEY""]",19,0,0,0,1,1774663785
476,0b156b6c-08f3-11e7-a1cb-3863bb33a4e4,de Marseille / de la Pépinière,6722,45.5766515768136,-73.5406994819641,"[""CREDITCARD"", ""KEY""]",23,0,0,0,1,1774663785
483,0b157357-08f3-11e7-a1cb-3863bb33a4e4,St-André / Ste-Catherine,6729,45.5162975408496,-73.5580104589462,"[""CREDITCARD"", ""KEY""]",24,0,0,0,1,1774663785
486,0b15768c-08f3-11e7-a1cb-3863bb33a4e4,Fortune / Wellington,6732,45.4778173180487,-73.5588419437408,"[""CREDITCARD"", ""KEY""]",27,0,0,0,1,1774663785
489,0b1579f1-08f3-11e7-a1cb-3863bb33a4e4,Lajeunesse / Villeray,6734,45.5421817350758,-73.6226865649223,"[""CREDITCARD"", ""KEY""]",15,0,0,0,1,1774663785
490,0b157b10-08f3-11e7-a1cb-3863bb33a4e4,Métro Henri-Bourassa (Henri-Bourassa / Millen),6736,45.5567510329728,-73.6671616137028,"[""CREDITCARD"", ""KEY""]",16,0,0,0,1,1774663785
491,0b157c28-08f3-11e7-a1cb-3863bb33a4e4,Émile-Journault / Christophe-Colomb,6737,45.5549730628778,-73.6375235145624,"[""CREDITCARD"", ""KEY""]",21,0,0,0,1,1774663785
493,0b157e60-08f3-11e7-a1cb-3863bb33a4e4,Union / René-Lévesque,6738,45.502350361368,-73.5665827989578,"[""CREDITCARD"", ""KEY""]",27,0,0,0,1,1774663785
497,0b1582bb-08f3-11e7-a1cb-3863bb33a4e4,Lincoln / du Fort,6742,45.4930651186314,-73.5838267207146,"[""CREDITCARD"", ""KEY""]",19,0,0,0,1,1774663785
498,0b1583e3-08f3-11e7-a1cb-3863bb33a4e4,Lincoln / St-Marc,6743,45.4941684131003,-73.5825741291046,"[""CREDITCARD"", ""KEY""]",23,0,0,0,1,1774663785
500,0b158b6f-08f3-11e7-a1cb-3863bb33a4e4,Jean-Talon / de l'Épée,6745,45.5279413517698,-73.623885512352,"[""CREDITCARD"", ""KEY""]",15,0,0,0,1,1774663785
501,0b158ca5-08f3-11e7-a1cb-3863bb33a4e4,Métro Acadie (de l'Acadie / Beaumont),6746,45.5235747940001,-73.6234429478645,"[""CREDITCARD"", ""KEY""]",21,0,0,0,1,1774663785
504,0b159001-08f3-11e7-a1cb-3863bb33a4e4,Robert-Bourassa / Ste-Catherine,6749,45.503254093199,-73.5700234398973,"[""CREDITCARD"", ""KEY""]",39,0,0,0,1,1774663785
505,0b159114-08f3-11e7-a1cb-3863bb33a4e4,Gilford / de la Roche,6750,45.5302069240853,-73.5820706979212,"[""CREDITCARD"", ""KEY""]",18,0,0,0,1,1774663785
514,0b15c4e5-08f3-11e7-a1cb-3863bb33a4e4,Ball / Bloomfield,7001,45.5299969970634,-73.6328709125519,"[""CREDITCARD"", ""KEY""]",11,0,0,0,1,1774663785
524,0b15d009-08f3-11e7-a1cb-3863bb33a4e4,Métro Beaudry (Beaudry / Ste-Catherine),7011,45.5188845317829,-73.5559384524822,"[""CREDITCARD"", ""KEY""]",23,0,0,0,1,1774663785
525,0b15d11c-08f3-11e7-a1cb-3863bb33a4e4,St-Hubert / René-Levesque,7012,45.5144819716506,-73.5568732023239,"[""CREDITCARD"", ""KEY""]",19,0,0,0,1,1774663785
526,0b15d232-08f3-11e7-a1cb-3863bb33a4e4,Hingston / Somerled,7013,45.4735172240845,-73.6342045666606,"[""CREDITCARD"", ""KEY""]",15,0,0,0,1,1774663785
527,0b15d348-08f3-11e7-a1cb-3863bb33a4e4,Métro Université de Montréal (Édouard-Montpetit / Louis-Collin),7014,45.5036399625721,-73.6182689666748,"[""CREDITCARD"", ""KEY""]",26,0,0,0,1,1774663785
529,0b15db12-08f3-11e7-a1cb-3863bb33a4e4,Métro Langelier (Langelier / Sherbrooke),7016,45.5828466318918,-73.5424764454365,"[""CREDITCARD"", ""KEY""]",19,0,0,0,1,1774663785
530,0b15dc2d-08f3-11e7-a1cb-3863bb33a4e4,Bennett / Ste-Catherine,7017,45.5531591505782,-73.5326327383518,"[""CREDITCARD"", ""KEY""]",21,0,0,0,1,1774663785
532,0b15de58-08f3-11e7-a1cb-3863bb33a4e4,St-Viateur / Casgrain,7019,45.5270132036288,-73.5979732319538,"[""CREDITCARD"", ""KEY""]",19,0,0,0,1,1774663785
535,0b15e1ac-08f3-11e7-a1cb-3863bb33a4e4,Thérèse-Lavoix-Roux / Wiseman,7022,45.5221761249012,-73.6191433668137,"[""CREDITCARD"", ""KEY""]",15,0,0,0,1,1774663785
536,0b15e2c4-08f3-11e7-a1cb-3863bb33a4e4,St-Denis / René-Lévesque,7023,45.5129636024341,-73.5586016273737,"[""CREDITCARD"", ""KEY""]",23,0,0,0,1,1774663785
537,0b15e3d6-08f3-11e7-a1cb-3863bb33a4e4,Métro Laurier (Berri / St-Joseph),7024,45.5272310656401,-73.5867261886597,"[""CREDITCARD"", ""KEY""]",21,0,0,0,1,1774663785
541,0b15e8c3-08f3-11e7-a1cb-3863bb33a4e4,Fullum / Marie-Anne,7027,45.5365054186122,-73.5680392384529,"[""CREDITCARD"", ""KEY""]",26,0,0,0,1,1774663785
543,0b15eb0c-08f3-11e7-a1cb-3863bb33a4e4,Cartier / Masson,7029,45.5380820268291,-73.5834718402657,"[""CREDITCARD"", ""KEY""]",19,0,0,0,1,1774663785
544,0b15ec38-08f3-11e7-a1cb-3863bb33a4e4,Cartier / Marie-Anne,7030,45.5328041280603,-73.5719016194344,"[""CREDITCARD"", ""KEY""]",27,0,0,0,1,1774663785
545,0b15ed4a-08f3-11e7-a1cb-3863bb33a4e4,Berri / Rachel,7031,45.5227502311829,-73.5772486031055,"[""CREDITCARD"", ""KEY""]",19,0,0,0,1,1774663785
546,0b15ee5d-08f3-11e7-a1cb-3863bb33a4e4,Henri-Julien / Laurier,7032,45.5257027626161,-73.5902564879689,"[""CREDITCARD"", ""KEY""]",19,0,0,0,1,1774663785
550,0b15f2ba-08f3-11e7-a1cb-3863bb33a4e4,Labadie / du Parc,7036,45.5198687111241,-73.596937870625,"[""CREDITCARD"", ""KEY""]",15,0,0,0,1,1774663785
555,0b15fda8-08f3-11e7-a1cb-3863bb33a4e4,Grand Boulevard / de Terrebonne,7041,45.4704242588115,-73.6315727233887,"[""CREDITCARD"", ""KEY""]",23,0,0,0,1,1774663785
557,0b15ffd0-08f3-11e7-a1cb-3863bb33a4e4,Parc Maisonneuve (Viau / Sherbrooke),7044,45.5649367933425,-73.5555911064148,"[""CREDITCARD"", ""KEY""]",23,0,0,0,1,1774663785
558,0b1600e4-08f3-11e7-a1cb-3863bb33a4e4,Laurier / St-Denis,7045,45.5271540234837,-73.5894392430782,"[""CREDITCARD"", ""KEY""]",37,0,0,0,1,1774663785
559,0b160210-08f3-11e7-a1cb-3863bb33a4e4,de Maisonneuve / Mansfield (nord),7046,45.5023860795833,-73.5733379423618,"[""CREDITCARD"", ""KEY""]",19,0,0,0,1,1774663785
561,0b16042d-08f3-11e7-a1cb-3863bb33a4e4,Métro Angrignon (Lamont / des Trinitaires),7048,45.4465045019204,-73.6025619506836,"[""CREDITCARD"", ""KEY""]",23,0,0,0,1,1774663785
562,0b160541-08f3-11e7-a1cb-3863bb33a4e4,Parc de Dieppe (Pierre-Dupuy),7049,45.5018634634356,-73.5439610481262,"[""CREDITCARD"", ""KEY""]",27,0,0,0,1,1774663785
563,0b160654-08f3-11e7-a1cb-3863bb33a4e4,des Vraquiers / Ottawa,7050,45.4897272531843,-73.5640628635883,"[""CREDITCARD"", ""KEY""]",15,0,0,0,1,1774663785
567,0b162f91-08f3-11e7-a1cb-3863bb33a4e4,de la Côte St-Paul / St-Ambroise,7054,45.467665653866,-73.5939178432454,"[""CREDITCARD"", ""KEY""]",27,0,0,0,1,1774663785
570,0b1632e1-08f3-11e7-a1cb-3863bb33a4e4,3e avenue / Wellington,7057,45.4573043112196,-73.5672327176508,"[""CREDITCARD"", ""KEY""]",19,0,0,0,1,1774663785
571,0b1633f6-08f3-11e7-a1cb-3863bb33a4e4,Rielle / Wellington,7058,45.4601583612584,-73.5669925437105,"[""CREDITCARD"", ""KEY""]",23,0,0,0,1,1774663785
572,0b163a73-08f3-11e7-a1cb-3863bb33a4e4,Melrose / de Verdun,7059,45.4538197937119,-73.5723844664972,"[""CREDITCARD"", ""KEY""]",19,0,0,0,1,1774663785
575,0b163de4-08f3-11e7-a1cb-3863bb33a4e4,William / Robert-Bourassa,7062,45.4971653400379,-73.5593301057815,"[""CREDITCARD"", ""KEY""]",21,0,0,0,1,1774663785
579,0b16436c-08f3-11e7-a1cb-3863bb33a4e4,St-Urbain / de la Gauchetière,7066,45.5070781281147,-73.561395406723,"[""CREDITCARD"", ""KEY""]",43,0,0,0,1,1774663785
580,0b164480-08f3-11e7-a1cb-3863bb33a4e4,City Councillors / du Président-Kennedy,7067,45.5063419307386,-73.5714870578704,"[""CREDITCARD"", ""KEY""]",31,0,0,0,1,1774663785
581,0b164596-08f3-11e7-a1cb-3863bb33a4e4,des Barges / des Bassins,7068,45.4887088112586,-73.563605959007,"[""CREDITCARD"", ""KEY""]",19,0,0,0,1,1774663785
582,0b1646b5-08f3-11e7-a1cb-3863bb33a4e4,Jeanne-Mance / René-Lévesque,7069,45.5063713381299,-73.5642009973526,"[""CREDITCARD"", ""KEY""]",61,0,0,0,1,1774663785
585,0b1649fe-08f3-11e7-a1cb-3863bb33a4e4,Beaudry / Sherbrooke,7072,45.5230349331071,-73.5653945803642,"[""CREDITCARD"", ""KEY""]",27,0,0,0,1,1774663785
586,0b164b12-08f3-11e7-a1cb-3863bb33a4e4,Bishop / de Maisonneuve,7073,45.4972042276631,-73.5777654405865,"[""CREDITCARD"", ""KEY""]",35,0,0,0,1,1774663785
587,0b164c29-08f3-11e7-a1cb-3863bb33a4e4,Montcalm / Ontario,7074,45.5210861525022,-73.5622322559357,"[""CREDITCARD"", ""KEY""]",23,0,0,0,1,1774663785
590,0b1654f1-08f3-11e7-a1cb-3863bb33a4e4,Jean-Langlois / Fullum,7077,45.5264999830002,-73.5457527742255,"[""CREDITCARD"", ""KEY""]",31,0,0,0,1,1774663785
591,0b16562e-08f3-11e7-a1cb-3863bb33a4e4,Joseph-Manseau / René-Levesque,7078,45.491686521008,-73.5768234729767,"[""CREDITCARD"", ""KEY""]",23,0,0,0,1,1774663785
592,0b165745-08f3-11e7-a1cb-3863bb33a4e4,St-Antoine / Robert-Bourassa,7079,45.499952672126,-73.5630276799657,"[""CREDITCARD"", ""KEY""]",27,0,0,0,1,1774663785
593,0b165864-08f3-11e7-a1cb-3863bb33a4e4,du Président-Kennedy / Union,7080,45.5052698528657,-73.5717718029082,"[""CREDITCARD"", ""KEY""]",39,0,0,0,1,1774663785
594,0b165999-08f3-11e7-a1cb-3863bb33a4e4,St-Hubert / de Maisonneuve,7081,45.5161321498072,-73.560496866703,"[""CREDITCARD"", ""KEY""]",23,0,0,0,1,1774663785
607,a69227c7-deda-4988-a5fd-f3e9fe4d00fe,Métro Lionel-Groulx (St-Jacques / Atwater),7082,45.4829581614922,-73.5797583685417,"[""CREDITCARD"", ""KEY""]",33,0,0,0,1,1774663785
608,4cabba00-e5fa-434b-a526-7653c25e392c,McTavish / Sherbrooke,7084,45.5027761586181,-73.575894087553,"[""CREDITCARD"", ""KEY""]",54,0,0,0,1,1774663785
610,ad95c994-c6b6-4c07-aa95-915b2c4a83c9,Mansfield / Ste-Catherine,7085,45.5014670868775,-73.5717659092188,"[""CREDITCARD"", ""KEY""]",35,0,0,0,1,1774663785
611,98ee8221-ac11-4cca-9855-159f6ec2a125,Métro Place-des-Arts (du Président-Kennedy / Jeanne-Mance),7086,45.5081804462329,-73.5688459422818,"[""CREDITCARD"", ""KEY""]",27,0,0,0,1,1774663785
619,0ca346e9-95e1-402f-a074-6b71d2c9e3dd,St-Cuthbert / Clark,7092,45.515671683549,-73.5774430632591,"[""CREDITCARD"", ""KEY""]",15,0,0,0,1,1774663785
620,9c482b2f-0a57-4ef8-8bd5-73ac839b1b35,Metcalfe / de Maisonneuve,7093,45.5017703435353,-73.5742749599831,"[""CREDITCARD"", ""KEY""]",27,0,0,0,1,1774663785
621,b4d3a74f-e4e1-4e2f-a748-b4c90a4f4b03,de l'Hôtel-de-Ville / Duluth,7094,45.5187457432996,-73.577542578837,"[""CREDITCARD"", ""KEY""]",19,0,0,0,1,1774663785
623,8afbbf58-1be5-4a44-91ef-42f6c5635c99,Chabanel / du Parc,7096,45.5383076545955,-73.6548838019371,"[""CREDITCARD"", ""KEY""]",30,0,0,0,1,1774663785
625,5d358b14-6a3b-48cf-ba5a-c37f818e20f8,Grey / Sherbrooke,7099,45.476510756895,-73.6064726114273,"[""CREDITCARD"", ""KEY""]",21,0,0,0,1,1774663785
626,37ce8fe7-e47c-4fc2-bb12-188268b84830,Union / Ste-Catherine,7098,45.5040272131431,-73.5697022080421,"[""CREDITCARD"", ""KEY""]",47,0,0,0,1,1774663785
641,8c6532d4-b6ed-481b-b6c9-585459a6becb,Smith / Peel,7114,45.49276061084,-73.5564105212688,"[""CREDITCARD"", ""KEY""]",27,0,0,0,1,1774663785
642,913c1975-01ea-4a82-b7fe-0e69126f1ba9,Métro Radisson (Sherbrooke / des Groseilliers),7115,45.5891750041871,-73.5396561026573,"[""CREDITCARD"", ""KEY""]",19,0,0,0,1,1774663785
643,310b2729-af0a-4e79-8cb9-af1139e0229c,Métro Honoré-Beaugrand (Sherbrooke / Honoré-Beaugrand),7116,45.5968562793505,-73.5352636687821,"[""CREDITCARD"", ""KEY""]",19,0,0,0,1,1774663785
645,7e5f3173-c724-4050-8178-2b4e0b2a5e4d,Ste-Claire / Baldwin,7118,45.601435943187,-73.5246171911422,"[""CREDITCARD"", ""KEY""]",23,0,0,0,1,1774663785
646,42196207-6f5d-4c13-ba35-a900d5e1be17,Duchesneau / de Marseille,7119,45.6096262782622,-73.5227389808279,"[""CREDITCARD"", ""KEY""]",19,0,0,0,1,1774663785
647,713a0060-2a0b-44f1-99b2-947eaa8dbfc3,Pierre-de-Coubertin / Aird,7120,45.559031065393,-73.5483035445213,"[""CREDITCARD"", ""KEY""]",31,0,0,0,1,1774663785
652,a2c00315-461b-4191-b92b-eca7e4bfb066,Rosemont / Viau,7125,45.5683302167486,-73.5666632652283,"[""CREDITCARD"", ""KEY""]",23,0,0,0,1,1774663785
656,99aa90a0-1eeb-42d0-968a-4549dfd76378,Gilford / Papineau,7129,45.5343936461316,-73.5782369971275,"[""CREDITCARD"", ""KEY""]",19,0,0,0,1,1774663785
657,7e04cea7-60a1-4c66-a1c6-272c89a6df97,Métro du Collège (Cartier / Décarie),7130,45.5084390497917,-73.6729645729065,"[""CREDITCARD"", ""KEY""]",17,0,0,0,1,1774663785
658,0382a293-bef4-46d4-acce-11a2f811feb4,Montpellier / Stinson,7131,45.5195232737671,-73.6665337086379,"[""CREDITCARD"", ""KEY""]",23,0,0,0,1,1774663785
662,f07958e1-1c97-488d-9c91-fc5af07b6903,O'Brien / Poirier,7135,45.5225248411379,-73.6914396286011,"[""CREDITCARD"", ""KEY""]",23,0,0,0,1,1774663785
663,ce9d8184-476d-4694-82df-ce19914d9faa,Gilford / Parthenais,7136,45.5378294372357,-73.5748085007799,"[""CREDITCARD"", ""KEY""]",15,0,0,0,1,1774663785
664,d233c7b6-364e-457f-aa03-2b2b9f0d978c,de la Montagne / de Maisonneuve,7137,45.4988387304882,-73.5771485614896,"[""CREDITCARD"", ""KEY""]",35,0,0,0,1,1774663785
667,d2e0271f-1000-45a5-be2b-826bc3d86065,Sanguinet / Ontario,7140,45.5148918127106,-73.5658725544636,"[""CREDITCARD"", ""KEY""]",19,0,0,0,1,1774663785
670,79bc2886-1f1e-4d36-9e73-6a2a01804c87,LaSalle / Godin,7143,45.4469344848464,-73.572199344635,"[""CREDITCARD"", ""KEY""]",27,0,0,0,1,1774663785
672,cfc793a2-de06-4a1f-8eb5-598089b390a4,Argyle / Bannantyne,7145,45.4532398973566,-73.5768241435289,"[""CREDITCARD"", ""KEY""]",23,0,0,0,1,1774663785
673,d6622a9d-b9f1-4cb0-b4e8-3764196c6373,St-Jacques / des Seigneurs,7146,45.4891952005596,-73.5719338645504,"[""CREDITCARD"", ""KEY""]",23,0,0,0,1,1774663785
681,2486cb1f-9475-4291-85a4-5f11104667e4,Melville / de Maisonneuve,6437,45.4818401935937,-73.5953789949417,"[""CREDITCARD"", ""KEY""]",15,0,0,0,1,1774663785
692,d23da94b-4ffc-41f8-aac9-26a7d54dd58d,de Gaspé / Marmier,8056,45.5296681740247,-73.6016694456339,"[""CREDITCARD"", ""KEY""]",21,0,1,0,1,1774663785
696,af9c250f-97f7-4d9a-a34f-2c8bf06f2a1b,Parc Van Horne (de la Peltrie / de Westbury),8017,45.4904944218329,-73.6385223269463,"[""CREDITCARD"", ""KEY""]",15,0,0,0,1,1774663785
702,8cfe3cbc-9dfb-4a5b-9ffe-ea84de64eb47,Parc Georges St-Pierre (Oxford / Upper Lachine),8018,45.4688799592981,-73.6094391345978,"[""CREDITCARD"", ""KEY""]",19,0,0,0,1,1774663785
703,3deba875-e06a-45a3-9ac3-c2990de36d09,Parc de la Confédération (Fielding / West Hill),8019,45.4718819935861,-73.6400216817856,"[""CREDITCARD"", ""KEY""]",23,0,0,0,1,1774663785
705,10eebef8-e9de-4a35-bb77-fe91b0d92114,des Ormeaux / de Grosbois,8042,45.6059017319065,-73.534369468689,"[""CREDITCARD"", ""KEY""]",15,0,0,0,1,1774663785
706,302c870a-f143-4fd6-80c2-ffeb145e66ff,Parc MacDonald (Clanranald / Isabella),8020,45.4827414838037,-73.6347082843349,"[""CREDITCARD"", ""KEY""]",15,0,0,0,1,1774663785
707,c9940d6e-d804-42a9-ab99-cdd8f2718002,Parc Reine-Élizabeth (Penniston / Crawford),8065,45.4391446525581,-73.5917365550995,"[""CREDITCARD"", ""KEY""]",15,0,0,0,1,1774663785
708,6bcc24f4-d3c9-4864-9777-aa1e4e8a04ec,Parc Labelle (LaSalle / Henri-Duhamel),8064,45.4723841979956,-73.5699999332428,"[""CREDITCARD"", ""KEY""]",19,0,0,0,1,1774663785
710,d5af8bbd-012e-41d0-8c20-e4c018f3fdb1,Beurling / Godin,8066,45.4479158121584,-73.5838186740875,"[""CREDITCARD"", ""KEY""]",19,0,0,0,1,1774663785
717,f08b2a87-bbf3-47c0-a0a0-db836f256076,Place Rodolphe-Rousseau (Gohier / Édouard-Laurin),8068,45.5129938566323,-73.6824984848499,"[""CREDITCARD"", ""KEY""]",25,0,1,0,1,1774663785
718,47cb7a0c-4250-4c21-b70a-7a815187216d,du Marché Central / Crémazie,8053,45.533417405999,-73.6488837003708,"[""CREDITCARD"", ""KEY""]",15,0,1,0,1,1774663785
719,ef18ab32-665d-4d7d-b3aa-64dee950c0f9,Cégep André-Laurendeau (Lapierre),8029,45.4360551210455,-73.6057752370834,"[""CREDITCARD"", ""KEY""]",29,0,1,0,1,1774663785
729,ef48ad79-5aee-4989-9d30-59a4a168251a,La Fontaine / Panet,8063,45.5220590178438,-73.559216624144,"[""CREDITCARD"", ""KEY""]",19,0,0,0,1,1774663785
734,92334c60-8ec2-4568-a990-59e8100c0cfd,BIXI K5,8016,45.5302976335879,-73.6013978719711,"[""CREDITCARD"", ""KEY""]",14,0,1,0,1,1774663785
742,7f228487-4db1-4040-b432-5b7c939d0013,Gilford / St-Denis,8032,45.5249761296063,-73.5855889320374,"[""CREDITCARD"", ""KEY""]",39,0,0,0,1,1774663785
749,31a4b3aa-7962-4d6a-aafe-cfdc333c21b8,de Bordeaux / Rachel,8033,45.5320753229761,-73.5676998398048,"[""CREDITCARD"", ""KEY""]",23,0,0,0,1,1774663785
752,7b579c3f-73d6-457d-ab89-5ffdaf450857,Messier / St-Joseph,8036,45.5394606396559,-73.5760563611984,"[""CREDITCARD"", ""KEY""]",17,0,1,0,1,1774663785
756,9baed1f7-b468-4be6-a769-ae54a14f59a8,CHU Ste-Justine (de la Côte Ste-Catherine / Hudson),8074,45.5039816854912,-73.6228394508362,"[""CREDITCARD"", ""KEY""]",37,0,1,0,1,1774663785
762,55513f38-da48-4f6e-a73b-d169074f7e1d,Centre des loisirs (Tassé / Grenet),8022,45.5147342941666,-73.6914490163326,"[""CREDITCARD"", ""KEY""]",15,0,1,0,1,1774663785
769,3b842092-18d6-4513-bf2e-ec1492112626,Parc Molson (d'Iberville / Beaubien),8146,45.549022304554,-73.5919816419482,"[""CREDITCARD"", ""KEY""]",19,0,1,0,1,1774663785
770,c81a9546-82f3-42f3-bff4-778458cc2f96,Parc St-Laurent (Dutrisac),8147,45.5259138181523,-73.6891114711761,"[""CREDITCARD"", ""KEY""]",19,0,1,0,1,1774663785
772,51fed989-6dd2-492e-98aa-038fe579f33d,CHSLD St-Michel (8e avenue / Jarry),8162,45.5616903,-73.610512,"[""CREDITCARD"", ""KEY""]",15,0,1,0,1,1774663785
774,a3f2b0c6-4dab-48ed-aa9d-6192e502649b,Hôpital Santa Cabrini (de Pontoise / d'Évreux),8141,45.5813540339115,-73.5726099908516,"[""CREDITCARD"", ""KEY""]",15,0,1,0,1,1774663785
780,9542acd7-7bf6-46ef-bd6c-95f777cebbf7,Masson / Molson,8104,45.5443459324525,-73.5769768618047,"[""CREDITCARD"", ""KEY""]",19,0,1,0,1,1774663785
794,e92b9e0d-d575-40e4-9b57-b206b839fe76,Marché Jean-Talon (Casgrain / Shamrock),8133,45.535190061635,-73.6154821515083,"[""CREDITCARD"", ""KEY""]",29,0,1,0,1,1774663785
797,dae6ca43-f6ab-4aa5-84c8-69e78b30f6d3,Bibliothèque Hélène-Charbonneau (Lajeunesse),8098,45.5534000891078,-73.66225451231,"[""CREDITCARD"", ""KEY""]",15,0,1,0,1,1774663785
798,68778270-f72b-4d9d-bb0a-e5b295a3c26c,La Tour de Montréal (Pierre-de-Coubertin / Bennett),8166,45.559705268059,-73.5515543818474,"[""CREDITCARD"", ""KEY""]",25,0,1,0,1,1774663785
800,1929ef6b-926c-43b3-8c28-a3f28718e204,Hôpital Notre-Dame (Alexandre-DeSève),8132,45.5251841212419,-73.5618961509499,"[""CREDITCARD"", ""KEY""]",21,0,1,0,1,1774663785
801,26ea3651-0a88-440a-918a-fe81a8077f18,Fabrik8 (Waverly / Jean-Talon),8153,45.5333072571942,-73.620822429657,"[""CREDITCARD"", ""KEY""]",21,0,1,0,1,1774663785
806,c97f5dc0-d333-451c-a225-41f171a44702,Parc Beaubien Outremont (Stuart / St-Viateur),8138,45.5159696949223,-73.6082750558853,"[""CREDITCARD"", ""KEY""]",15,0,1,0,1,1774663785
807,4e75758a-dacb-412e-b15f-3c5f9900833d,HEC (Decelles / Jean-Brillant),8117,45.4977228298998,-73.6192533373833,"[""CREDITCARD"", ""KEY""]",25,0,1,0,1,1774663785
808,a4d907bc-e97b-4795-bd82-13c812eda257,Parc Olympique (Pie-IX / Sherbrooke),8142,45.554824549823,-73.5537028312683,"[""CREDITCARD"", ""KEY""]",25,0,1,0,1,1774663785
822,d0f80c10-1c9f-44dd-aedd-344f9c355863,Place Émilie-Gamelin (St-Hubert / de Maisonneuve),8110,45.5158683512632,-73.5600838065147,"[""CREDITCARD"", ""KEY""]",19,0,1,0,1,1774663785
823,3c9cd0b8-981e-40a9-a17b-58bab3e6e4c6,Cégep du Vieux-Montréal (Ontario / de l'Hôtel-de-Ville),8167,45.5140122264578,-73.5659866780043,"[""CREDITCARD"", ""KEY""]",15,0,1,0,1,1774663785
824,5b5b7fe2-2a71-4138-9d8f-df9d30249832,Parc du Père-Marquette (de Bellechasse / de Lanaudière),8185,45.539306918976,-73.5952187329531,"[""CREDITCARD"", ""KEY""]",19,0,1,0,1,1774663785
826,aca5c23d-4ae1-46ac-bbaf-b85d1bfcb51a,IUSMM (Georges-Villeneuve),8124,45.5866104283881,-73.529691696167,"[""CREDITCARD"", ""KEY""]",19,0,1,0,1,1774663785
828,b1f4dd73-6a3b-4ac8-bdfe-8b3fc44b3901,CHSLD Joseph-François-Perrault (St-Michel / Everett),8159,45.5596973452857,-73.6014595627785,"[""CREDITCARD"", ""KEY""]",18,0,1,0,1,1774663785
830,58b5caa3-f5fb-405b-b5f1-7a768658a899,Hochelaga / de l'Assomption,8198,45.5668830910952,-73.5394381731749,"[""CREDITCARD"", ""KEY""]",23,0,1,0,1,1774663785
831,82119401-4811-45a7-b7f7-a5d35dbbf0b6,REM Montpellier (Muir / de la Côte-Vertu),8205,45.5237404714714,-73.6716992408037,"[""CREDITCARD"", ""KEY""]",15,0,1,0,1,1774663785
834,c3424ed2-ea5d-482d-a457-51c29bafb74f,Métro St-Laurent (de Maisonneuve / St-Laurent),8188,45.5107482179892,-73.5651209950447,"[""CREDITCARD"", ""KEY""]",24,0,1,0,1,1774663785
835,d91d0057-b423-4e88-b39d-c0e409cad299,Parc Nicolas-Tillemont (des Érables / Villeray),8207,45.554636533586,-73.6125521577196,"[""CREDITCARD"", ""KEY""]",18,0,1,0,1,1774663785
838,9fe43b4e-a20a-4215-bb58-39d6cb701a39,CHSLD Robert Cliche (de Bellechasse / 16e avenue),8121,45.557568,-73.579191,"[""CREDITCARD"", ""KEY""]",15,0,1,0,1,1774663785
840,9522795f-f047-48e4-b811-fcf932f59f63,Collège de Rosemont (Beaubien / 15e avenue),8204,45.5577499083824,-73.5838012397289,"[""CREDITCARD"", ""KEY""]",29,0,1,0,1,1774663785
848,0f987d93-4c44-46e2-a09d-143bf9027946,Préfontaine / Marcel-Pépin,8199,45.5436538004051,-73.5594206303358,"[""CREDITCARD"", ""KEY""]",19,0,1,0,1,1774663785
850,3488ef16-7ac6-4f37-831d-e037ad6e4186,de Chambly / de Rouen,8118,45.5470496637535,-73.5489217936993,"[""CREDITCARD"", ""KEY""]",11,0,1,0,1,1774663785
851,82fd73b3-60d5-4f6b-8172-c4a547088ef6,Hôpital général juif (de la Côte-Ste-Catherine / Légaré),8191,45.4962414054327,-73.6298386752605,"[""CREDITCARD"", ""KEY""]",37,0,1,0,1,1774663785
855,76f1c3bb-04e6-4113-a0bf-e8d77ed8dbce,Parc Honoré-Mercier (Notre-Dame / Liébert),8192,45.592752535683,-73.5103563219309,"[""CREDITCARD"", ""KEY""]",27,0,1,0,1,1774663785
857,c034c60d-e3ca-408d-8174-744f614f6ffe,de la Côte-Ste-Catherine / Decelles,8135,45.5009410158851,-73.6256369948387,"[""CREDITCARD"", ""KEY""]",19,0,1,0,1,1774663785
861,f6fe8e53-fd78-43cc-98b6-7b70e1cc52ac,Parc des Vétérans (des Vétérans / Broadway),8101,45.631471921654,-73.508194796741,"[""CREDITCARD"", ""KEY""]",11,0,1,0,1,1774663785
863,7ea7a858-b653-444d-b06a-c22a94a139c3,Parc de l'Hôtel-de-Ville (Ste-Julie / Laurendeau),8100,45.6306860437673,-73.4948467835784,"[""CREDITCARD"", ""KEY""]",19,0,1,0,1,1774663785
866,c1645026-d504-47c8-824e-90e446e0bd81,Parc de Montréal-Est (Notre-Dame / David),8102,45.6131632321574,-73.5098936408758,"[""CREDITCARD"", ""KEY""]",19,0,1,0,1,1774663785
867,10b5a217-8bea-4dd2-86f9-a2b4d52d33cb,Centre récréatif Édouard-Rivet (Notre-Dame / Lesage),8103,45.628461580499,-73.4995215386152,"[""CREDITCARD"", ""KEY""]",15,0,1,0,1,1774663785
873,68e18dde-1035-418e-92d1-05b9a3353202,Place Ville-Marie (Robert-Bourassa / René-Lévesque),8093,45.5021829099012,-73.5682538151741,"[""CREDITCARD"", ""KEY""]",33,0,1,0,1,1774663785
886,0aace254-e55d-458a-8cb3-db7e6e3192de,Molson / William-Tremblay,8123,45.5416028444354,-73.5649607330561,"[""CREDITCARD"", ""KEY""]",29,0,1,0,1,1774663785
888,4e25443f-9edb-449e-afa3-9500780f10af,Complexe Desjardins (St-Urbain / René-Lévesque),8137,45.5078852068848,-73.56315059591,"[""CREDITCARD"", ""KEY""]",41,0,1,0,1,1774663785
889,dd9b12e5-438f-4531-afcf-6c970fb9bd13,Parc St-Gabriel (Grand Trunk / Ropery),8156,45.4785457125189,-73.5657231509686,"[""CREDITCARD"", ""KEY""]",19,0,1,0,1,1774663785
899,060f0c50-48db-4abe-bc0f-6cf23a14ff9f,Logan / Poupart,8184,45.5300499902393,-73.549507856369,"[""CREDITCARD"", ""KEY""]",19,0,0,0,1,1774663785
900,3719ae6f-2a27-45a9-9a39-caf84c1d619d,Fullum / de Rouen,8186,45.5322553624361,-73.5589202400479,"[""CREDITCARD"", ""KEY""]",27,0,0,0,1,1774663785
901,b4615bf2-0aaa-45df-a31f-f21ffea74210,Sherbrooke / Frontenac,8189,45.5367322155334,-73.560796189131,"[""CREDITCARD"", ""KEY""]",15,0,0,0,1,1774663785
909,af6a9a6b-534b-417f-9c41-e1df02dadc9b,St-Dominique / du Mont-Royal,8181,45.5205806236527,-73.5857605934143,"[""CREDITCARD"", ""KEY""]",23,0,0,0,1,1774663785
910,e58bcbe1-df5b-473e-993e-526003e8a03b,St-Patrick / Thomas-Keefer,8092,45.4780115271338,-73.5742729483263,"[""CREDITCARD"", ""KEY""]",31,0,0,0,1,1774663785
912,02851bf0-8982-4a53-8132-b066e7d1aa6a,Garnier / du Mont-Royal,8174,45.5307559739825,-73.5761762317452,"[""CREDITCARD"", ""KEY""]",23,0,0,0,1,1774663785
913,785d7380-c62a-4a4e-9da1-a145fa9584b7,Collège André-Grasset (Crémazie / Christophe-Colomb),8223,45.5509896497191,-73.6321660038266,"[""CREDITCARD"", ""KEY""]",19,0,1,0,1,1774663785
915,ca39b5d2-11b0-4701-9233-7b25ffaabb74,Roy / Saint-Laurent,8173,45.5156518219508,-73.575773900393,"[""CREDITCARD"", ""KEY""]",23,0,0,0,1,1774663785
916,684e31cb-0696-4f4b-a9ce-7f7dac99a851,de Bordeaux / Gilford,8175,45.5360904446712,-73.5761676728725,"[""CREDITCARD"", ""KEY""]",23,0,0,0,1,1774663785
917,73519af3-1a8f-441f-b6d1-fadfe322b1b5,Mackay / René-Lévesque,8218,45.494435509263,-73.5740371987049,"[""CREDITCARD"", ""KEY""]",31,0,0,0,1,1774663785
918,932af38b-711c-42ff-a6a0-6e699da5c6ea,Chabot / Laurier,8176,45.5369578192315,-73.5796085014226,"[""CREDITCARD"", ""KEY""]",19,0,0,0,1,1774663785
919,f8679291-7153-4587-beaf-947d60684f8f,Ottawa / Young,8217,45.4937090532742,-73.5597785469326,"[""CREDITCARD"", ""KEY""]",39,0,0,0,1,1774663785
923,7eb80037-c0ec-42d0-a45a-3828b6547529,Clark / Laurier,8180,45.5226115141797,-73.5936803277764,"[""CREDITCARD"", ""KEY""]",19,0,0,0,1,1774663785
927,0b783e50-3bf8-43b8-9c1d-5fcf2452a5a8,Mansfield / Sherbrooke,8219,45.5030153352982,-73.5751303658617,"[""CREDITCARD"", ""KEY""]",35,0,0,0,1,1774663785
928,9639ceeb-35a2-4b32-9a0a-84416f8386c4,de la Gauchetière / St-Alexandre,8220,45.5030422183911,-73.5636876247736,"[""CREDITCARD"", ""KEY""]",19,0,0,0,1,1774663785
929,473e10e0-0e7b-4aec-9e7c-0e117796c293,Plessis / Ontario,8183,45.523593057451,-73.5610976815224,"[""CREDITCARD"", ""KEY""]",19,0,0,0,1,1774663785
930,80e564d9-eaf4-4d8c-b51d-eb020ea58589,Wolfe / Robin,8190,45.519599088174,-73.5602007387297,"[""CREDITCARD"", ""KEY""]",10,0,0,0,1,1774663785
931,a9efa9ba-8ec9-4676-9afb-2619aef368e9,Métro / REM Édouard-Montpetit (Vincent-d'Indy),8197,45.5098845231074,-73.6114883422852,"[""CREDITCARD"", ""KEY""]",23,0,0,0,1,1774663785
932,a96e1906-63c3-4172-977e-6661f9c5fe76,Dorion / Ste-Catherine,8177,45.5236013376632,-73.5512566566467,"[""CREDITCARD"", ""KEY""]",19,0,0,0,1,1774663785
933,c08c0a73-151f-4157-8aaf-2842cdd527c5,St-Timothée / Ste-Catherine,8178,45.5170563208812,-73.5577013716829,"[""CREDITCARD"", ""KEY""]",19,0,0,0,1,1774663785
935,8b07cd9e-6b2b-48ed-9ebf-da8caeaef20b,Parc St-Patrick (St-Patrick / St-Columban),8224,45.4887078515095,-73.5589931719369,"[""CREDITCARD"", ""KEY""]",19,0,1,0,1,1774663785
940,063f7b54-9cd1-4d6d-bd17-adaa2b1419a6,Hogan / Ontario,6800,45.5353029956049,-73.5511372983456,"[""CREDITCARD"", ""KEY""]",11,0,0,0,1,1774663785
942,0940c255-e2c8-4ca7-8bf4-6d5231c7b2ea,Parc Howard (de l'Épée / de Liège),8228,45.5333769320332,-73.6422838084763,"[""CREDITCARD"", ""KEY""]",21,0,1,0,1,1774663785
948,27589fb9-0cff-426b-a757-25a5fa16dac5,Édouard-Montpetit / de Stirling,8229,45.5073788871187,-73.6148598790169,"[""CREDITCARD"", ""KEY""]",31,0,1,0,1,1774663785
949,172e1f5c-f354-4060-a9d9-db29f63a9f1d,Métro Rosemont (de St-Vallier / Rosemont),8230,45.5318053622049,-73.5975547786984,"[""CREDITCARD"", ""KEY""]",15,0,1,0,1,1774663785
950,8f90531d-4007-42a4-96d2-af31d82e22fd,Parc Hector-Toe-Blake (du Sussex / René-Lévesque),8238,45.4891541027529,-73.5808875561088,"[""CREDITCARD"", ""KEY""]",17,0,0,0,1,1774663785
951,fe4931a3-10f6-4975-923d-4c6a1a7d064a,Parc Gabriel-Sagard (Jean-Talon / Sagard),8236,45.5514095713154,-73.6038225889206,"[""CREDITCARD"", ""KEY""]",23,0,0,0,1,1774663785
952,49c73117-6f77-49c3-abb3-bcf08ab4157f,Métro Viau (Pierre-de-Coubertin / Viau),8235,45.562288149995,-73.5462259054839,"[""CREDITCARD"", ""KEY""]",55,0,0,0,1,1774663785
953,2d2efa91-75c5-4bec-8422-2452773f2b0c,Hamilton / Jolicoeur,8234,45.456040691693,-73.5974209756114,"[""CREDITCARD"", ""KEY""]",15,0,0,0,1,1774663785
955,2e90a430-aa05-4d21-bf9f-d20ad2c89b3f,de Kent / Hudson,8231,45.5058412398175,-73.6293169856071,"[""CREDITCARD"", ""KEY""]",27,0,0,0,1,1774663785
956,528b563e-5309-44d2-a57b-805c1d2d5d3a,Ste-Émilie / Sir-Georges-Etienne-Cartier,8232,45.4730231835101,-73.5850372210916,"[""CREDITCARD"", ""KEY""]",19,0,0,0,1,1774663785
957,3792e09a-f9c7-4710-8599-6e6811c5bd0c,Calixa-Lavallée / Rachel,8239,45.5277829924464,-73.5716744557794,"[""CREDITCARD"", ""KEY""]",3,0,0,0,1,1774663785
959,6d86bdc8-b318-4bae-ae86-f59eb0357e59,Molson / Beaubien,8237,45.5497775089523,-73.5913210809395,"[""CREDITCARD"", ""KEY""]",23,0,0,0,1,1774663785
960,359fcea6-4235-4fed-96cd-25dc1925562f,Roy / St-André,8245,45.5215657129591,-73.5704188700947,"[""CREDITCARD"", ""KEY""]",23,0,0,0,1,1774663785
961,f72d4c24-0f8c-440d-9a34-15d8563ce1dc,35e avenue / Beaubien,8242,45.5699964650328,-73.573074817723,"[""CREDITCARD"", ""KEY""]",23,0,0,0,1,1774663785
962,d0becf72-065f-46fe-b705-a9b06b76fc8e,Cité des Arts du Cirque (Paul-Boutet / Jarry),8243,45.5592188663914,-73.6140096187592,"[""CREDITCARD"", ""KEY""]",35,0,0,0,1,1774663785
963,bfab983d-9fe2-4468-8198-aea1b1e03159,St-Antoine / Jean-Paul Riopelle,8244,45.5030478290986,-73.5605896466768,"[""CREDITCARD"", ""KEY""]",23,0,0,0,1,1774663785
964,713264cd-70b8-45a7-b8a3-58d19cbd10f4,Fabre / Villeray,8246,45.5501436045321,-73.6158120632171,"[""CREDITCARD"", ""KEY""]",23,0,0,0,1,1774663785
965,516a2b6f-dd30-4f7c-9f21-ba58ee44f9d6,Papineau / Émile-Journault,8247,45.5599175338944,-73.6335285412861,"[""CREDITCARD"", ""KEY""]",27,0,1,0,1,1774663785
966,b5b33e06-0ed7-4f1f-9fd5-4e5fe0fe93ca,Ste-Famille / Sherbrooke,8248,45.5100669320712,-73.5707215060756,"[""CREDITCARD"", ""KEY""]",19,0,0,0,1,1774663785
967,b7e128e1-3018-45c1-96a9-8ee52c602e52,Place Valois (Valois / Ontario),8252,45.5470175008423,-73.543126247896,"[""CREDITCARD"", ""KEY""]",21,0,1,0,1,1774663785
968,6d544083-a7c7-4d3a-9bb6-022a501f4293,Georges-Vanier / Notre-Dame,8249,45.4850695706113,-73.5719499578045,"[""CREDITCARD"", ""KEY""]",19,0,0,0,1,1774663785
969,b8a32563-7149-4764-93eb-dd04e9522c34,Marquette / des Carrières,8250,45.5387230818472,-73.5887056589127,"[""CREDITCARD"", ""KEY""]",27,0,0,0,1,1774663785
971,94763d66-0888-4ed4-a531-455e19b240d4,de la Porte de Québec / St-André,8253,45.5132941,-73.5505781,"[""CREDITCARD"", ""KEY""]",23,0,0,0,1,1774663785
974,2ae15851-f4d0-4ea5-a1ea-79755548c9b1,Bassin Peel (Smith / de la Commune),8256,45.4927225362334,-73.5562723875046,"[""CREDITCARD"", ""KEY""]",27,0,0,0,1,1774663785
977,4530b031-9368-4d95-91c8-2cbc4a5a1757,de la Côte-des-Neiges / Remembrance,8257,45.4955060154181,-73.6057714197977,"[""CREDITCARD"", ""KEY""]",13,0,1,0,1,1774663785
978,69317078-7c43-4843-b09f-061129d778b5,Collège Ahuntsic (St-Hubert / Émile-Journault),8258,45.5511894026755,-73.6406020447612,"[""CREDITCARD"", ""KEY""]",23,0,1,0,1,1774663785
979,000a013a-deaf-4d3c-a942-b786dacd32b3,Collège de Maisonneuve (Sherbrooke / Bourbonnière),8259,45.5514436442577,-73.5546964220703,"[""CREDITCARD"", ""KEY""]",17,0,1,0,1,1774663785
980,4159ea2a-005c-4e96-972e-4013195feeef,Wellington / Queen,8260,45.4977037746907,-73.5553441755474,"[""CREDITCARD"", ""KEY""]",21,0,1,0,1,1774663785
981,84ca69ae-0852-43c7-8652-cf014874ed7a,de Courcelle / Acorn,8261,45.4740086022919,-73.5917846672237,"[""CREDITCARD"", ""KEY""]",21,0,1,0,1,1774663785
985,693a50a4-dfd9-4011-908a-e15ce12d335f,Métro Préfontaine (Moreau / Hochelaga),8241,45.5413135032853,-73.5537427291274,"[""CREDITCARD"", ""KEY""]",31,0,1,0,1,1774663785
1057,8f66ed85-1858-4db7-bf99-7843ab4c845b,de la Commune / Nazareth,8270,45.4935565842455,-73.5533597646372,"[""CREDITCARD"", ""KEY""]",19,0,1,0,1,1774663785
1058,a2c2c14a-3ff2-4d6e-9557-9582ab3b60ad,de la Commune / McGill,8267,45.4986336632122,-73.552750647068,"[""CREDITCARD"", ""KEY""]",56,0,0,0,1,1774663785
1060,c65ad946-fdc6-4c45-b8fb-9968959e19b7,Parc du Père-Marquette (de Bellechasse),8266,45.5395282716316,-73.5949712991714,"[""CREDITCARD"", ""KEY""]",36,0,0,0,1,1774663785
1061,0e3b644e-d688-4634-90cc-f632e3fce919,Métro Champ-de-Mars (Viger / Sanguinet),8268,45.5103491484294,-73.5566859841674,"[""CREDITCARD"", ""KEY""]",37,0,1,0,1,1774663785
1062,c34a9829-5d77-4138-b668-b653c86946b3,Place des Montréalaises (St-Antoine),8269,45.5088250925434,-73.5559837818801,"[""CREDITCARD"", ""KEY""]",17,0,1,0,1,1774663785
1073,05c4553d-89e3-4b91-8489-664ecf637338,Bourbonnière / du Mont-Royal,8272,45.5536700407795,-73.5606962443489,"[""CREDITCARD"", ""KEY""]",27,0,0,0,1,1774663785
1074,a3e747d3-6d27-46fc-a0c7-fa7db10d98aa,de la Commune / Berri,8273,45.5106055391741,-73.5501317260878,"[""CREDITCARD"", ""KEY""]",27,0,1,0,1,1774663785
1112,9ad1423c-2e7e-4615-b3a7-1cb31ad866f7,Parc Olympique - Biodôme (Pierre-de-Coubertin),8320,45.5591456240767,-73.5489419102669,"[""CREDITCARD"", ""KEY""]",53,0,1,0,1,1774663785
1114,fa46b60c-a0d8-4a7a-87f2-ab307f7c859b,Square Viger (Berri),8274,45.5122043351515,-73.554608374925,"[""CREDITCARD"", ""KEY""]",27,0,0,0,1,1774663785
1117,e1728228-6fbd-4d9f-a1f1-0c345798fed0,Parc Maisonneuve - Chalet (Accès Sherbrooke),8276,45.5617090482854,-73.5564976930618,"[""CREDITCARD"", ""KEY""]",23,0,0,0,1,1774663785
1118,ad3c017e-76af-448b-bb43-69a570bbae90,Bennett / Pierre-de-Coubertin,8292,45.5581728068413,-73.5484993457794,"[""CREDITCARD"", ""KEY""]",21,0,0,0,1,1774663785
1121,6f9788d7-de29-4955-b6b8-2e22b8d9e975,Bennett / Ontario,8279,45.5555510188871,-73.5401022435326,"[""CREDITCARD"", ""KEY""]",21,0,1,0,1,1774663785
1122,9100873f-a430-4115-be72-f8fe613024c2,Villeray / de Normanville,8281,45.5471711196991,-73.6185622216362,"[""CREDITCARD"", ""KEY""]",21,0,0,0,1,1774663785
1124,3de821b8-1eec-496a-aed3-fadc9dac16a5,Parc Marguerite-Bourgeoys (Liverpool / Wellington),8282,45.47619292559,-73.5596488417286,"[""CREDITCARD"", ""KEY""]",15,0,0,0,1,1774663785
1125,4d76abed-924d-4b73-ac6d-d1428d8eab47,Bourret / Victoria,8283,45.4932283153276,-73.6345392465591,"[""CREDITCARD"", ""KEY""]",23,0,0,0,1,1774663785
1126,5a75eead-2986-4826-9778-3c935564fe17,Côte-des-Neiges / Carlton,8280,45.5017370482729,-73.6338470131705,"[""CREDITCARD"", ""KEY""]",21,0,0,0,1,1774663785
1127,23b64256-1bcb-4fd9-85f8-c8b68043a731,Métro Assomption (Chauveau / Assomption),8275,45.5697666406318,-73.548056781292,"[""CREDITCARD"", ""KEY""]",19,0,0,0,1,1774663785
1130,898a0144-435c-4fd0-8486-7a755dbb753c,Gordon / Wellington,8284,45.4610355436152,-73.5669556260109,"[""CREDITCARD"", ""KEY""]",15,0,0,0,1,1774663785
1131,0331f68d-a621-4f52-94d1-48a8559bb915,de la Gauchetière / de la Cathédrale,8287,45.4980341129844,-73.5679689795234,"[""CREDITCARD"", ""KEY""]",49,0,0,0,1,1774663785
1133,e5f3bae6-bba0-4044-a017-44d5b038c9c8,Durocher / Bernard,8286,45.5223151888262,-73.6069446802139,"[""CREDITCARD"", ""KEY""]",21,0,0,0,1,1774663785
1136,bfc645ba-2732-4599-8450-b55dd3f69e9e,Hôtel-de-Ville / Viger,8294,45.5095612215054,-73.5575021803379,"[""CREDITCARD"", ""KEY""]",23,0,0,0,1,1774663785
1137,0f8b9418-0ae3-42a0-b287-9bfdcdee22ad,Parc Ignace-Bourget (de Montmagny / Newman),8299,45.4552945177741,-73.6032745242665,"[""CREDITCARD"", ""KEY""]",15,0,0,0,1,1774663785
1138,01028405-e81d-47d9-a425-e73618c45fa0,Lionel-Groulx / Vinet,8295,45.4846680031771,-73.5762749612331,"[""CREDITCARD"", ""KEY""]",19,0,0,0,1,1774663785
1140,c7eb32e0-d71b-4364-9d6d-f3f23906033b,Benny / Sherbrooke,8300,45.4648258280637,-73.6264172569145,"[""CREDITCARD"", ""KEY""]",23,0,1,0,1,1774663785
1141,96b252fa-b79f-4ee7-95bc-eee2a17fe6fd,Parc des Gorilles (Beaubien / St-Urbain),8301,45.5293008490249,-73.6108414829869,"[""CREDITCARD"", ""KEY""]",21,0,1,0,1,1774663785
1142,657ad056-970b-4ab8-8bb1-957843f08f85,René-Lévesque / de Lorimier,8308,45.5240365854166,-73.5470017792977,"[""CREDITCARD"", ""KEY""]",21,0,1,0,1,1774663785
1143,eb573208-1438-437b-b5ed-16b3cc722ce9,du Séminaire / Olier,8298,45.4901296419648,-73.5600918531418,"[""CREDITCARD"", ""KEY""]",29,0,0,0,1,1774663785
1146,7356bea9-fe41-4232-9eb0-9dcbceac1c61,de Maisonneuve / Mackay,8278,45.4964313468789,-73.5788453370787,"[""CREDITCARD"", ""KEY""]",19,0,0,0,1,1774663785
1147,5a517d4d-9c14-4807-96ed-668274b61ee6,Gaétan-Laberge / de l'Église,8302,45.4632450802027,-73.5624694079706,"[""CREDITCARD"", ""KEY""]",19,0,0,0,1,1774663785
1149,d86bd3bb-42ba-4591-8734-19fa8e8520d8,Parc du Mont-Royal (Remembrance),8304,45.499162977512,-73.6005940139376,"[""CREDITCARD"", ""KEY""]",25,0,0,0,1,1774663785
1150,6d7daed0-13a4-4ccd-af9a-f3cd22622420,de l'Inspecteur / Notre-Dame,8305,45.4971166341997,-73.562327742593,"[""CREDITCARD"", ""KEY""]",19,0,0,0,1,1774663785
1151,10d8b051-5c90-4aeb-a9c2-4e62cc2bcafc,Rose-de-Lima / Delisle,8306,45.4807653763859,-73.5819368810007,"[""CREDITCARD"", ""KEY""]",21,0,1,0,1,1774663785
1152,7e32c6de-30af-445e-b4d7-1374e179ecbf,Moreau / Ontario,8307,45.5395780758075,-73.5486786068577,"[""CREDITCARD"", ""KEY""]",29,0,1,0,1,1774663785
1153,f6b1bfdb-da19-4a86-a8be-545d5909a496,Boileau / Lacordaire,8311,45.5725576456798,-73.5410750942401,"[""CREDITCARD"", ""KEY""]",23,0,1,0,1,1774663785
1155,d46a5dc1-da53-46df-9de3-9db78e7d675b,Parc Beaubien (Beaubien / 8e avenue),8310,45.5532073905551,-73.5880932863984,"[""CREDITCARD"", ""KEY""]",21,0,1,0,1,1774663785
